{"business_id":"KPmFv_Ou6ddauV_gYauWzg","name":"Taquer√≠a La Juquilita","address":"5913 Morrow Rd","city":"Nashville","state":"TN","postal_code":"37209","latitude":36.1621286521,"longitude":-86.8611215519,"stars":4.5,"review_count":74,"is_open":1,"attributes":{"GoodForKids":"True","RestaurantsReservations":"False","RestaurantsGoodForGroups":"False","RestaurantsDelivery":"False","Ambience":"{'touristy': False, 'hipster': False, 'romantic': False, 'divey': True, 'intimate': False, 'trendy': False, 'upscale': False, 'classy': False, 'casual': True}","Caters":"False","GoodForMeal":"{'dessert': False, 'latenight': False, 'lunch': True, 'dinner': True, 'brunch': False, 'breakfast': False}","NoiseLevel":"u'average'","HasTV":"True","RestaurantsAttire":"'casual'","OutdoorSeating":"False","WiFi":"u'no'","RestaurantsPriceRange2":"1","Alcohol":"'none'","RestaurantsTableService":"False","BusinessAcceptsCreditCards":"False","RestaurantsTakeOut":"True","BikeParking":"False","BusinessParking":"{'garage': False, 'street': False, 'validated': False, 'lot': True, 'valet': False}"},"categories":"Mexican, Restaurants","hours":{"Monday":"10:0-20:0","Tuesday":"10:0-20:0","Wednesday":"10:0-20:0","Thursday":"10:0-20:0","Friday":"10:0-20:0","Saturday":"10:0-20:0","Sunday":"10:0-20:0"}}
{"business_id":"nteD5A6CKXZPqbR9EltQng","name":"Super China Chinese Restaurant","address":"8663 Little Rd","city":"Port Richey","state":"FL","postal_code":"34654","latitude":28.283355,"longitude":-82.677826,"stars":4.0,"review_count":54,"is_open":1,"attributes":{"BikeParking":"True","HasTV":"True","WiFi":"'no'","BusinessParking":"{'garage': False, 'street': False, 'validated': False, 'lot': False, 'valet': False}","Alcohol":"'none'","RestaurantsAttire":"'casual'","RestaurantsTakeOut":"True","OutdoorSeating":"False","GoodForKids":"True","GoodForMeal":"None","RestaurantsReservations":"False","RestaurantsPriceRange2":"1","BusinessAcceptsCreditCards":"True","Ambience":"{u'divey': None, u'hipster': None, u'casual': None, u'touristy': None, u'trendy': None, u'intimate': None, u'romantic': False, u'classy': None, u'upscale': None}","RestaurantsDelivery":"True","RestaurantsGoodForGroups":"True"},"categories":"Restaurants, Chinese","hours":{"Monday":"11:0-22:0","Wednesday":"11:0-22:0","Thursday":"11:0-22:0","Friday":"11:0-22:30","Saturday":"11:0-22:30","Sunday":"12:0-22:0"}}
{"business_id":"BBJwmkIWfqyfuZNXhs7Z9w","name":"Nola Crawfish Festival","address":"1201 South Rampart St","city":"New Orleans","state":"LA","postal_code":"70113","latitude":29.9439907,"longitude":-90.0788013,"stars":3.5,"review_count":6,"is_open":1,"attributes":null,"categories":"Festivals, Arts & Entertainment","hours":null}
{"business_id":"Ktw3a8hXOKL00UCk_1nSEQ","name":"Bully's Sports Bar & Grill","address":"9725 Pyramid Hwy","city":"Sparks","state":"NV","postal_code":"89441","latitude":39.640527,"longitude":-119.71245,"stars":2.5,"review_count":126,"is_open":1,"attributes":{"Ambience":"{'romantic': False, 'intimate': False, 'classy': False, 'hipster': False, 'divey': False, 'touristy': False, 'trendy': False, 'upscale': False, 'casual': True}","BusinessAcceptsCreditCards":"True","HasTV":"True","NoiseLevel":"'average'","Alcohol":"u'full_bar'","RestaurantsPriceRange2":"2","RestaurantsGoodForGroups":"True","BusinessParking":"{'garage': False, 'street': False, 'validated': False, 'lot': True, 'valet': False}","BikeParking":"True","WiFi":"'free'","GoodForKids":"True","HappyHour":"True","BestNights":"{'monday': False, 'tuesday': False, 'friday': True, 'wednesday': False, 'thursday': True, 'sunday': False, 'saturday': False}","RestaurantsTakeOut":"True","RestaurantsDelivery":"True","GoodForMeal":"None","CoatCheck":"False","GoodForDancing":"False","OutdoorSeating":"True","RestaurantsReservations":"False","Music":"{u'dj': False, u'live': False, u'jukebox': None, u'video': False, u'background_music': False, u'karaoke': False, u'no_music': False}"},"categories":"Nightlife, Sports Bars, Bars, American (Traditional), Pizza, Restaurants","hours":{"Monday":"8:0-23:0","Tuesday":"8:0-23:0","Wednesday":"8:0-23:0","Thursday":"8:0-23:0","Friday":"8:0-1:0","Saturday":"8:0-1:0","Sunday":"8:0-23:0"}}
{"business_id":"joziEnj1kVdr6uUAE6kXog","name":"American Airlines Admirals Club","address":"10701 Lambert International Blvd","city":"Saint Louis","state":"MO","postal_code":"63044","latitude":38.742129,"longitude":-90.364595,"stars":3.5,"review_count":25,"is_open":1,"attributes":{"HasTV":"True","Alcohol":"'full_bar'","RestaurantsReservations":"False","RestaurantsGoodForGroups":"False","RestaurantsPriceRange2":"2","BikeParking":"False","OutdoorSeating":"False","WiFi":"'free'","BusinessAcceptsCreditCards":"True","BestNights":"{'monday': False, 'tuesday': False, 'friday': False, 'wednesday': False, 'thursday': False, 'sunday': False, 'saturday': False}","GoodForDancing":"False","BusinessParking":"{'garage': None, 'street': False, 'validated': False, 'lot': False, 'valet': False}","Music":"{'dj': False, 'background_music': False, 'no_music': False, 'jukebox': False, 'live': False, 'video': False, 'karaoke': None}","ByAppointmentOnly":"False","HappyHour":"False","NoiseLevel":"u'average'","Ambience":"{'touristy': None, 'hipster': False, 'romantic': None, 'divey': False, 'intimate': False, 'trendy': None, 'upscale': None, 'classy': None, 'casual': True}"},"categories":"Hotels & Travel, Nightlife, Airports, Travel Services, Bars, Airport Lounges","hours":{"Monday":"5:0-20:0","Tuesday":"5:0-20:0","Wednesday":"5:0-20:0","Thursday":"5:0-20:0","Friday":"5:0-20:0","Saturday":"5:0-19:30","Sunday":"5:0-20:0"}}
{"business_id":"iclOBFnkunQLJSuquSOelw","name":"Optical Outlets","address":"14390 N Dale Mabry Hwy","city":"Tampa","state":"FL","postal_code":"33618","latitude":28.0785027,"longitude":-82.5074034,"stars":3.5,"review_count":15,"is_open":1,"attributes":{"ByAppointmentOnly":"True","BusinessAcceptsCreditCards":"True"},"categories":"Shopping, Eyewear & Opticians, Optometrists, Health & Medical","hours":{"Monday":"9:0-18:0","Tuesday":"9:0-18:0","Wednesday":"9:0-18:0","Thursday":"9:0-18:0","Friday":"9:0-18:0","Saturday":"8:0-15:30"}}
{"business_id":"MOBvgVwvZMV8hyngcr7hfw","name":"Shiloh Veterinary Clinic","address":"3690 Green Mount Crossing","city":"Shiloh","state":"IL","postal_code":"62269","latitude":38.5562740854,"longitude":-89.92863078,"stars":5.0,"review_count":10,"is_open":1,"attributes":null,"categories":"Veterinarians, Pets","hours":{"Monday":"8:0-18:0","Tuesday":"7:0-18:0","Thursday":"7:0-18:0","Friday":"8:0-17:0","Saturday":"8:0-12:0"}}
{"business_id":"zrOY3GoObBmINVcCGfD9iw","name":"Xfinity Store by Comcast","address":"5601 Concord Pike","city":"Wilmington","state":"DE","postal_code":"19803","latitude":39.834041,"longitude":-75.542322,"stars":3.0,"review_count":8,"is_open":1,"attributes":{"ByAppointmentOnly":"False","BusinessAcceptsCreditCards":"True"},"categories":"Professional Services, IT Services & Computer Repair, Telecommunications, Television Service Providers, Local Services, Internet Service Providers, Home Services","hours":{"Monday":"9:0-20:0","Tuesday":"9:0-20:0","Wednesday":"9:0-20:0","Thursday":"9:0-20:0","Friday":"9:0-20:0","Saturday":"9:0-20:0","Sunday":"11:0-17:0"}}
{"business_id":"CLpTzz3h2o5i6NBq32ayyw","name":"Ritualistics","address":"15804 Stony Plain Rd","city":"Edmonton","state":"AB","postal_code":"T5P 3Z6","latitude":53.5416501,"longitude":-113.594271,"stars":3.5,"review_count":11,"is_open":1,"attributes":{"RestaurantsPriceRange2":"2","BikeParking":"True","ByAppointmentOnly":"True","WiFi":"u'free'","WheelchairAccessible":"True","BusinessParking":"None"},"categories":"Tattoo, Piercing, Beauty & Spas","hours":{"Monday":"0:0-0:0","Tuesday":"13:0-17:0","Wednesday":"13:0-17:0","Thursday":"12:0-20:0","Friday":"13:0-17:0","Saturday":"13:0-17:0"}}
{"business_id":"X6LG3spqmxFeYXyjNBh7iQ","name":"J & J Superior Garage Door Service","address":"","city":"Tucson","state":"AZ","postal_code":"85747","latitude":32.1114393,"longitude":-110.7360863,"stars":4.5,"review_count":8,"is_open":1,"attributes":{"ByAppointmentOnly":"False","BusinessAcceptsCreditCards":"True"},"categories":"Home Services, Garage Door Services","hours":{"Monday":"6:0-21:0","Tuesday":"6:0-21:0","Wednesday":"6:0-21:0","Thursday":"6:0-21:0","Friday":"6:0-21:0","Saturday":"6:0-21:0","Sunday":"7:0-13:0"}}
{"business_id":"8l3w-veP9tSZ2W0vGgw_yA","name":"All Points Towing","address":"2801 Vassar St, Ste B","city":"Reno","state":"NV","postal_code":"89502","latitude":39.513267,"longitude":-119.774606,"stars":4.5,"review_count":45,"is_open":1,"attributes":{"ByAppointmentOnly":"False","BusinessAcceptsCreditCards":"False"},"categories":"Automotive, Auto Repair, Auction Houses, Towing, Roadside Assistance, Shopping","hours":{"Monday":"8:0-17:0","Tuesday":"8:0-17:0","Wednesday":"8:0-17:0","Thursday":"8:0-17:0","Friday":"8:0-17:0"}}
{"business_id":"On3gF6c5HCDnsP5S7ONfSw","name":"Reno Oriental Rug Wash","address":"","city":"Sparks","state":"NV","postal_code":"89432","latitude":39.54,"longitude":-119.75,"stars":5.0,"review_count":12,"is_open":1,"attributes":{"BusinessAcceptsCreditCards":"True"},"categories":"Local Services, Flooring, Shopping, Home & Garden, Carpet Cleaning, Home Services, Rugs","hours":{"Monday":"8:0-17:0","Tuesday":"8:0-20:0","Wednesday":"8:0-17:0","Thursday":"8:0-17:0","Friday":"8:0-17:0"}}
{"business_id":"Q28TlneXws1shf8ymTdxtg","name":"Funland Raspados And Munchies","address":"2100 W Grant Rd, Ste 110","city":"Tucson","state":"AZ","postal_code":"85745","latitude":32.2511453516,"longitude":-111.0123500904,"stars":4.5,"review_count":6,"is_open":1,"attributes":null,"categories":"Restaurants, Shaved Ice, Burgers, Juice Bars & Smoothies, Desserts, Food","hours":{"Monday":"10:0-22:0","Tuesday":"10:0-22:0","Wednesday":"10:0-22:0","Thursday":"10:0-22:0","Friday":"10:0-22:0","Saturday":"10:0-22:0","Sunday":"10:0-22:0"}}
{"business_id":"cKkxqm_FzbTYHbYm49hJpQ","name":"La Placita Village Parking Garage","address":"211 S Church Ave","city":"Tucson","state":"AZ","postal_code":"85701","latitude":32.2200967,"longitude":-110.9716825,"stars":1.0,"review_count":6,"is_open":1,"attributes":null,"categories":"Automotive, Parking","hours":null}
{"business_id":"uFF40n9pOqHK1ciajdoSEw","name":"Tony's Restaurant","address":"699 Linden Ave","city":"Carpinteria","state":"CA","postal_code":"93013","latitude":34.396988,"longitude":-119.5210305,"stars":3.0,"review_count":72,"is_open":0,"attributes":{"Caters":"False","RestaurantsPriceRange2":"2","RestaurantsTakeOut":"True","BusinessParking":"{'garage': False, 'street': True, 'validated': False, 'lot': False, 'valet': False}","OutdoorSeating":"True","Ambience":"{'romantic': False, 'intimate': False, 'classy': False, 'hipster': False, 'divey': False, 'touristy': False, 'trendy': False, 'upscale': False, 'casual': True}","BusinessAcceptsCreditCards":"True","HasTV":"False","RestaurantsReservations":"True","Alcohol":"u'beer_and_wine'","BikeParking":"False","NoiseLevel":"u'average'","RestaurantsAttire":"'casual'","RestaurantsGoodForGroups":"True","GoodForKids":"True","RestaurantsDelivery":"True","WiFi":"u'no'"},"categories":"Restaurants, American (Traditional)","hours":{"Monday":"11:30-20:30","Tuesday":"11:30-20:30","Thursday":"11:30-20:30","Friday":"11:30-21:0","Saturday":"11:30-21:0","Sunday":"11:30-20:30"}}
{"business_id":"_L0DNfnS5VFGv-V1WcMdmA","name":"Hugo's Auto Detailing","address":"1298 Coast Village Rd","city":"Santa Barbara","state":"CA","postal_code":"93108","latitude":34.4219076495,"longitude":-119.6402371906,"stars":5.0,"review_count":15,"is_open":1,"attributes":{"WiFi":"u'no'","BusinessAcceptsCreditCards":"True"},"categories":"Automotive, Auto Glass Services, Car Wash, Auto Detailing","hours":{"Monday":"8:0-17:0","Tuesday":"8:0-17:0","Wednesday":"8:0-17:0","Thursday":"8:0-17:0","Friday":"8:0-17:0","Saturday":"8:0-17:0"}}
{"business_id":"XgLrkmIqIrD_pl67lAovEQ","name":"The Bourse","address":"111 S Independence Mall E","city":"Philadelphia","state":"PA","postal_code":"19106","latitude":39.9498192516,"longitude":-75.1486551501,"stars":2.0,"review_count":35,"is_open":0,"attributes":{"BikeParking":"True","RestaurantsPriceRange2":"2","BusinessAcceptsCreditCards":"True","OutdoorSeating":"True","Ambience":"{'romantic': False, 'intimate': False, 'classy': False, 'hipster': False, 'divey': False, 'touristy': False, 'trendy': False, 'upscale': False, 'casual': False}","Caters":"False","RestaurantsReservations":"False","GoodForKids":"True","NoiseLevel":"'average'","WiFi":"u'free'","HasTV":"True","DogsAllowed":"False","RestaurantsAttire":"'casual'","Alcohol":"u'full_bar'","RestaurantsTakeOut":"True","RestaurantsDelivery":"True","RestaurantsTableService":"False","BusinessParking":"{'garage': True, 'street': True, 'validated': False, 'lot': False, 'valet': False}","GoodForMeal":"{'dessert': False, 'latenight': False, 'lunch': False, 'dinner': False, 'brunch': False, 'breakfast': False}","RestaurantsGoodForGroups":"True","WheelchairAccessible":"True"},"categories":"Food Court, Shopping, Shopping Centers, IT Services & Computer Repair, Local Services, Souvenir Shops, Restaurants","hours":{"Monday":"7:0-20:0","Tuesday":"9:0-18:0","Wednesday":"7:0-22:0","Thursday":"7:0-22:0","Friday":"7:0-0:0","Saturday":"7:0-0:0","Sunday":"9:0-18:0"}}
{"business_id":"Qp2f-8rj0P14WDNCaoOAUQ","name":"Cheap Car Insurance","address":"","city":"Tampa","state":"FL","postal_code":"33615","latitude":28.0003221,"longitude":-82.5889012,"stars":4.5,"review_count":20,"is_open":1,"attributes":null,"categories":"Life Insurance, Financial Services, Auto Insurance, Insurance","hours":{"Monday":"8:0-22:45","Tuesday":"8:0-21:30","Wednesday":"8:0-20:0","Thursday":"8:0-21:15","Friday":"8:0-20:45","Saturday":"8:0-21:0","Sunday":"8:0-21:0"}}
{"business_id":"usFEKg4-2C48qPIh32HbHA","name":"Fine Wine & Good Spirits - Premium Collection","address":"1112 Chestnut St, Ste 28","city":"Philadelphia","state":"PA","postal_code":"19107","latitude":39.9500812,"longitude":-75.1593054,"stars":2.0,"review_count":7,"is_open":1,"attributes":{"DriveThru":"None"},"categories":"Food, Beer, Wine & Spirits","hours":{"Monday":"0:0-0:0","Tuesday":"9:0-18:0","Wednesday":"9:0-18:0","Thursday":"9:0-18:0","Friday":"9:0-18:0","Saturday":"9:0-18:0"}}
{"business_id":"FTsU1vykdDcqfP1uhqG9YQ","name":"St Louis Fish and Chicken","address":"5800 Page Blvd","city":"Saint Louis","state":"MO","postal_code":"63112","latitude":38.6667921,"longitude":-90.2836674,"stars":4.0,"review_count":7,"is_open":1,"attributes":{"RestaurantsReservations":"False","RestaurantsAttire":"u'casual'","RestaurantsTakeOut":"True","BikeParking":"False","BusinessAcceptsCreditCards":"True","GoodForKids":"True","RestaurantsDelivery":"True","RestaurantsGoodForGroups":"True","RestaurantsPriceRange2":"2"},"categories":"Greek, Seafood, Restaurants, Chicken Wings","hours":{"Monday":"10:0-0:0","Tuesday":"10:0-0:0","Wednesday":"10:0-0:0","Thursday":"10:0-0:0","Friday":"10:0-0:0","Saturday":"10:0-0:0","Sunday":"11:0-23:0"}}
{"business_id":"AGqm5AKVjiBkli1xecLYlQ","name":"DriveTime","address":"1425 E Ridge Pike","city":"Plymouth Meeting","state":"PA","postal_code":"19462","latitude":40.108124,"longitude":-75.317744,"stars":2.5,"review_count":5,"is_open":1,"attributes":null,"categories":"Used Car Dealers, Automotive, Car Dealers","hours":{"Monday":"11:0-19:0","Tuesday":"11:0-19:0","Wednesday":"11:0-19:0","Thursday":"11:0-19:0","Friday":"11:0-19:0","Saturday":"10:0-18:0"}}
{"business_id":"sLgnx_WFCjEoPsS6NwU70Q","name":"Le Peep","address":"3036 N Eagle Rd","city":"Meridian","state":"ID","postal_code":"83646","latitude":43.6327829,"longitude":-116.3523931,"stars":4.0,"review_count":259,"is_open":1,"attributes":{"WheelchairAccessible":"True","BusinessParking":"{'garage': False, 'street': False, 'validated': False, 'lot': True, 'valet': False}","RestaurantsReservations":"False","Ambience":"{'romantic': False, 'intimate': False, 'classy': False, 'hipster': False, 'divey': False, 'touristy': False, 'trendy': False, 'upscale': False, 'casual': True}","Caters":"True","Alcohol":"u'beer_and_wine'","BusinessAcceptsBitcoin":"False","GoodForMeal":"{'dessert': False, 'latenight': False, 'lunch': True, 'dinner': False, 'brunch': True, 'breakfast': True}","RestaurantsPriceRange2":"1","GoodForKids":"True","HasTV":"True","NoiseLevel":"u'average'","BikeParking":"True","RestaurantsAttire":"u'casual'","RestaurantsTableService":"True","RestaurantsGoodForGroups":"True","WiFi":"u'free'","DogsAllowed":"False","BusinessAcceptsCreditCards":"True","OutdoorSeating":"None","RestaurantsTakeOut":"None","RestaurantsDelivery":"None"},"categories":"Event Planning & Services, Salad, Caterers, American (New), Sandwiches, Restaurants, Breakfast & Brunch","hours":{"Monday":"7:0-14:0","Tuesday":"7:0-14:0","Wednesday":"7:0-14:0","Thursday":"7:0-14:0","Friday":"7:0-14:0","Saturday":"7:0-14:30","Sunday":"7:0-14:30"}}
{"business_id":"_IYHl6J9iB3lbeJq27pbsg","name":"Taqueria La Hacienda","address":"4715 N Front St","city":"Philadelphia","state":"PA","postal_code":"19120","latitude":40.02202,"longitude":-75.1240606,"stars":3.5,"review_count":10,"is_open":1,"attributes":{"RestaurantsTakeOut":"True","RestaurantsGoodForGroups":"True","BusinessAcceptsCreditCards":"True","RestaurantsTableService":"True","HasTV":"True","GoodForMeal":"{'dessert': False, 'latenight': False, 'lunch': False, 'dinner': False, 'brunch': False, 'breakfast': False}","RestaurantsDelivery":"True","GoodForKids":"True","RestaurantsReservations":"False","RestaurantsAttire":"'casual'","Ambience":"{'touristy': False, 'hipster': False, 'romantic': False, 'divey': False, 'intimate': False, 'trendy': False, 'upscale': False, 'classy': False, 'casual': False}","RestaurantsPriceRange2":"1","WiFi":"u'no'","OutdoorSeating":"None","BikeParking":"False","Alcohol":"u'none'"},"categories":"Latin American, Restaurants","hours":null}
{"business_id":"eJIgrRMRDnMJwbdh6V-XOA","name":"Flagship Title","address":"17221 Camelot Ct, Ste 102","city":"Land O Lakes","state":"FL","postal_code":"34638","latitude":28.195379,"longitude":-82.5312,"stars":4.5,"review_count":6,"is_open":1,"attributes":{"ByAppointmentOnly":"False","BusinessAcceptsBitcoin":"False","BusinessAcceptsCreditCards":"False"},"categories":"Home Services, Real Estate, Real Estate Services","hours":{"Monday":"9:0-17:30","Tuesday":"9:0-17:30","Wednesday":"9:0-17:30","Thursday":"9:0-17:30","Friday":"9:0-17:30"}}
{"business_id":"N9-NRK8PPvi73tduxoPKbA","name":"AMC Plymouth Meeting Mall 12","address":"494 W Germantown Pike","city":"Plymouth Meeting","state":"PA","postal_code":"19462","latitude":40.11461,"longitude":-75.279194,"stars":2.5,"review_count":169,"is_open":1,"attributes":{"GoodForKids":"True","ByAppointmentOnly":"False","WiFi":"u'no'","RestaurantsAttire":"u'casual'","DogsAllowed":"False"},"categories":"Arts & Entertainment, Cinema","hours":{"Monday":"11:0-23:0","Tuesday":"11:0-23:0","Wednesday":"11:0-23:0","Thursday":"11:0-23:0","Friday":"11:0-23:0","Saturday":"11:0-23:0","Sunday":"11:0-23:0"}}
{"business_id":"UnqYUb4ignk3tUaIfxgIkw","name":"Bellemont Apartment Homes","address":"6301 Riverside Dr","city":"Metairie","state":"LA","postal_code":"70003","latitude":30.0095129,"longitude":-90.2136549,"stars":1.0,"review_count":7,"is_open":1,"attributes":{"BusinessAcceptsCreditCards":"True"},"categories":"Home Services, Real Estate, Apartments","hours":{"Monday":"8:0-17:0","Tuesday":"8:0-17:0","Wednesday":"8:0-17:0","Thursday":"8:0-17:0","Friday":"8:0-17:0","Saturday":"10:0-16:0"}}
{"business_id":"ZyyExneJPXjci7yc2CGAPQ","name":"Cups & Chairs","address":"701-03 S 5th St","city":"Philadelphia","state":"PA","postal_code":"19147","latitude":39.940311,"longitude":-75.15099,"stars":4.5,"review_count":80,"is_open":0,"attributes":{"BikeParking":"True","BusinessAcceptsCreditCards":"True","BusinessParking":"{'garage': False, 'street': True, 'validated': False, 'lot': False, 'valet': False}","RestaurantsPriceRange2":"1","WiFi":"u'free'","OutdoorSeating":"True"},"categories":"Coffee & Tea, Food","hours":{"Monday":"7:0-19:0","Tuesday":"7:0-19:0","Wednesday":"7:0-19:0","Thursday":"7:0-19:0","Friday":"7:0-19:0","Saturday":"8:0-19:0","Sunday":"13:0-19:0"}}
{"business_id":"jZ0amxIjCOWD_Grik_lf4g","name":"Hair Cuttery","address":"142 Park Ave, space 18","city":"Willow Grove","state":"PA","postal_code":"19090","latitude":40.143542,"longitude":-75.116905,"stars":3.0,"review_count":8,"is_open":0,"attributes":{"RestaurantsPriceRange2":"1","BusinessParking":"{'garage': False, 'street': False, 'validated': False, 'lot': False, 'valet': False}","BusinessAcceptsCreditCards":"True","ByAppointmentOnly":"False"},"categories":"Beauty & Spas, Shopping, Cosmetics & Beauty Supply, Hair Salons","hours":{"Monday":"9:0-21:0","Tuesday":"9:0-21:0","Wednesday":"9:0-21:0","Thursday":"9:0-21:0","Friday":"9:0-21:0","Saturday":"8:0-19:0","Sunday":"9:0-18:0"}}
{"business_id":"PgU6_11-0OfScSI594RhMg","name":"Worlds Most Unusual Dollar Store & More","address":"4315 E Bay Dr","city":"Clearwater","state":"FL","postal_code":"33764","latitude":27.9153919,"longitude":-82.7420472,"stars":3.5,"review_count":14,"is_open":1,"attributes":{"BusinessAcceptsCreditCards":"True","BikeParking":"True","BusinessParking":"{'garage': False, 'street': False, 'validated': False, 'lot': False, 'valet': False}","RestaurantsPriceRange2":"1"},"categories":"Discount Store, Shopping","hours":null}
{"business_id":"BOSfORSF0k2qjHKFovbOuA","name":"Privateer Place","address":"2000 Lakeshore Dr","city":"New Orleans","state":"LA","postal_code":"70148","latitude":30.0300302267,"longitude":-90.0718548397,"stars":1.5,"review_count":37,"is_open":1,"attributes":{"BusinessAcceptsCreditCards":"True","ByAppointmentOnly":"False","BusinessAcceptsBitcoin":"False"},"categories":"Apartments, Real Estate, Home Services, University Housing","hours":{"Monday":"8:0-20:0","Tuesday":"8:0-20:0","Wednesday":"8:0-20:0","Thursday":"8:0-20:0","Friday":"8:0-20:0","Saturday":"10:0-16:0","Sunday":"12:0-16:0"}}
{"business_id":"pMEQsY7OdNS8jlM39f58Vg","name":"Subliminal Grilled Subs & More","address":"141 S Main St","city":"Waterloo","state":"IL","postal_code":"62298","latitude":38.3351684,"longitude":-90.1504277,"stars":4.5,"review_count":7,"is_open":0,"attributes":{"RestaurantsTakeOut":"True","RestaurantsDelivery":"True","RestaurantsGoodForGroups":"False","BusinessAcceptsCreditCards":"True","RestaurantsAttire":"'casual'","RestaurantsReservations":"True","GoodForKids":"True"},"categories":"Restaurants, Salad, Soup, Sandwiches","hours":null}
{"business_id":"SuSJ2BGPOSj_3NzqTIFgpw","name":"Optiks International","address":"1408 99 Street NW","city":"Edmonton","state":"AB","postal_code":"T6N 0A8","latitude":53.44347,"longitude":-113.484292,"stars":3.0,"review_count":5,"is_open":1,"attributes":{"ByAppointmentOnly":"False","BikeParking":"False","BusinessParking":"{'garage': False, 'street': False, 'validated': False, 'lot': False, 'valet': False}","RestaurantsPriceRange2":"2"},"categories":"Eyewear & Opticians, Health & Medical, Shopping, Optometrists","hours":{"Monday":"10:0-20:0","Tuesday":"10:0-20:0","Wednesday":"10:0-20:0","Thursday":"10:0-20:0","Friday":"10:0-20:0","Saturday":"10:0-18:0","Sunday":"11:0-17:0"}}
{"business_id":"zU2GDGapAvw0CSG6L-9ZgA","name":"Professional Nail Salon","address":"3939 W Lincoln Hwy","city":"Downingtown","state":"PA","postal_code":"19335","latitude":39.998053,"longitude":-75.741715,"stars":3.5,"review_count":5,"is_open":1,"attributes":{"BusinessParking":"{'garage': False, 'street': False, 'validated': False, 'lot': False, 'valet': False}","ByAppointmentOnly":"False","BusinessAcceptsCreditCards":"True","RestaurantsPriceRange2":"2","BikeParking":"False"},"categories":"Nail Salons, Beauty & Spas","hours":{"Tuesday":"10:0-19:0","Wednesday":"10:0-19:0","Thursday":"10:0-19:0","Friday":"10:0-19:0","Saturday":"10:0-18:0","Sunday":"10:0-17:0"}}
{"business_id":"BXXtMWs9OH1pCORuSyPK2g","name":"Davis Island Yacht Club","address":"1315 Severn Ave","city":"Tampa","state":"FL","postal_code":"33606","latitude":27.9078887743,"longitude":-82.4508785187,"stars":4.0,"review_count":8,"is_open":1,"attributes":{"GoodForKids":"True","BusinessParking":"{'garage': False, 'street': False, 'validated': False, 'lot': False, 'valet': False}","BikeParking":"True"},"categories":"Boating, Active Life","hours":null}
{"business_id":"i7WnyDXKpT-mPaHEMY-HcQ","name":"Harvest Coffee Roastery","address":"8109 Town Center Blvd","city":"Voorhees Township","state":"NJ","postal_code":"08043","latitude":39.8514104,"longitude":-74.9997241,"stars":4.0,"review_count":13,"is_open":1,"attributes":{"NoiseLevel":"u'quiet'","WiFi":"u'free'","OutdoorSeating":"True","BusinessAcceptsCreditCards":"True","BusinessParking":"{u'valet': False, u'garage': None, u'street': True, u'lot': None, u'validated': None}"},"categories":"Sandwiches, Restaurants, Bagels, Coffee Roasteries, Coffee & Tea, Food","hours":{"Monday":"7:0-19:0","Tuesday":"7:0-19:0","Wednesday":"7:0-19:0","Thursday":"7:0-19:0","Friday":"7:0-19:0","Saturday":"7:0-19:0","Sunday":"7:0-19:0"}}
{"business_id":"8jAX9NCL-JGh9WNJcTvXZg","name":"Eastside Discount Muffler","address":"1545 S Craycroft Rd","city":"Tucson","state":"AZ","postal_code":"85711","latitude":32.2028210247,"longitude":-110.8747026908,"stars":4.0,"review_count":6,"is_open":1,"attributes":{"BusinessAcceptsCreditCards":"True","ByAppointmentOnly":"False"},"categories":"Auto Repair, Automotive","hours":{"Monday":"9:0-17:0","Tuesday":"9:0-17:0","Wednesday":"9:0-17:0","Thursday":"9:0-17:0","Friday":"9:0-17:0"}}
{"business_id":"aYMpjij5ShtEoZueMrQPRw","name":"The Mill","address":"406 E Haley St","city":"Santa Barbara","state":"CA","postal_code":"93101","latitude":34.4211189,"longitude":-119.690633,"stars":4.0,"review_count":5,"is_open":1,"attributes":{"BusinessParking":"{'garage': False, 'street': True, 'validated': False, 'lot': True, 'valet': False}","BikeParking":"True","ByAppointmentOnly":"False","RestaurantsPriceRange2":"2","WheelchairAccessible":"True","BusinessAcceptsCreditCards":"True","RestaurantsTakeOut":"None","RestaurantsReservations":"False","RestaurantsDelivery":"None"},"categories":"Breweries, Shopping, Food Court, Food, Venues & Event Spaces, Restaurants, Event Planning & Services, Wineries, Wine Tasting Room, Arts & Entertainment, Shopping Centers","hours":{"Monday":"11:0-22:0","Tuesday":"11:0-22:0","Wednesday":"11:0-22:0","Thursday":"11:0-22:0","Friday":"11:0-22:30","Saturday":"11:0-22:30","Sunday":"11:0-22:0"}}
{"business_id":"Xk_boaNNKxbwwQYN3foFLw","name":"Infinite Descent","address":"15029 Madeira Way","city":"Madeira Beach","state":"FL","postal_code":"33708","latitude":27.802259,"longitude":-82.801201,"stars":4.0,"review_count":10,"is_open":0,"attributes":{"GoodForKids":"True","BusinessAcceptsCreditCards":"True","BikeParking":"True","BusinessParking":"{'garage': False, 'street': False, 'validated': False, 'lot': False, 'valet': False}","ByAppointmentOnly":"False"},"categories":"Active Life, Scuba Diving, Diving","hours":{"Monday":"10:0-18:0","Tuesday":"10:0-18:0","Wednesday":"10:0-18:0","Thursday":"10:0-18:0","Friday":"10:0-18:0","Saturday":"10:0-18:0"}}
{"business_id":"ZJC0ONdxmIlwidXd8E0fXg","name":"BoomBozz Craft Pizza & Taphouse","address":"8016 Hwy 100","city":"Nashville","state":"TN","postal_code":"37221","latitude":36.047064,"longitude":-86.951448,"stars":3.5,"review_count":57,"is_open":1,"attributes":{"Music":"{'dj': False, 'background_music': False, 'no_music': False, 'jukebox': False, 'live': False, 'video': False, 'karaoke': False}","RestaurantsTakeOut":"True","CoatCheck":"False","Alcohol":"u'full_bar'","Ambience":"{'touristy': False, 'hipster': False, 'romantic': False, 'divey': False, 'intimate': False, 'trendy': False, 'upscale': False, 'classy': False, 'casual': False}","GoodForMeal":"{'dessert': False, 'latenight': False, 'lunch': False, 'dinner': False, 'brunch': False, 'breakfast': False}","HasTV":"True","RestaurantsTableService":"True","WheelchairAccessible":"True","Smoking":"u'no'","HappyHour":"True","WiFi":"u'free'","Caters":"True","BusinessParking":"{'garage': False, 'street': False, 'validated': False, 'lot': True, 'valet': False}","RestaurantsDelivery":"True","BusinessAcceptsCreditCards":"True"},"categories":"Sports Bars, Nightlife, Sandwiches, Breakfast & Brunch, Pizza, Restaurants, Bars","hours":{"Tuesday":"16:0-21:0","Wednesday":"16:0-21:0","Thursday":"16:0-21:0","Friday":"16:0-22:0","Saturday":"11:0-22:0","Sunday":"11:0-21:0"}}
{"business_id":"zwfN21b6gN2XGjNG6MYNzQ","name":"Wolfgang Puck Express","address":"2500 S High School Rd","city":"Indianapolis","state":"IN","postal_code":"46241","latitude":39.7166926914,"longitude":-86.2978263572,"stars":2.0,"review_count":70,"is_open":0,"attributes":{"RestaurantsAttire":"u'casual'","NoiseLevel":"u'average'","BusinessParking":"{'garage': False, 'street': False, 'validated': False, 'lot': False, 'valet': False}","OutdoorSeating":"False","RestaurantsReservations":"False","HasTV":"True","RestaurantsDelivery":"False","Caters":"False","BusinessAcceptsCreditCards":"True","RestaurantsTakeOut":"True","RestaurantsPriceRange2":"2","GoodForKids":"True","GoodForMeal":"{'dessert': False, 'latenight': False, 'lunch': True, 'dinner': True, 'brunch': False, 'breakfast': False}","BikeParking":"False","WiFi":"'no'","RestaurantsGoodForGroups":"False","Alcohol":"'full_bar'","Ambience":"{'touristy': True, 'hipster': False, 'romantic': False, 'divey': False, 'intimate': False, 'trendy': False, 'upscale': False, 'classy': False, 'casual': True}"},"categories":"Breakfast & Brunch, American (New), Salad, Restaurants","hours":null}
{"business_id":"ezQUvpSmcCGkoX5Pf9B5Xg","name":"CSz Indianapolis - Home of ComedySportz","address":"721 Massachusetts Ave","city":"Indianapolis","state":"IN","postal_code":"46204","latitude":39.7766423,"longitude":-86.1462974,"stars":4.5,"review_count":48,"is_open":1,"attributes":{"BikeParking":"True","BusinessParking":"{'garage': False, 'street': True, 'validated': False, 'lot': False, 'valet': False}","OutdoorSeating":"False","Alcohol":"u'beer_and_wine'","RestaurantsGoodForGroups":"True","GoodForKids":"True","NoiseLevel":"u'loud'","RestaurantsPriceRange2":"2","HasTV":"False","BusinessAcceptsCreditCards":"True","Music":"{'dj': None, 'background_music': False, 'no_music': False, 'jukebox': False, 'live': False, 'video': False, 'karaoke': False}","Ambience":"{'touristy': None, 'hipster': None, 'romantic': False, 'divey': None, 'intimate': False, 'trendy': None, 'upscale': False, 'classy': False, 'casual': True}","GoodForDancing":"False","BestNights":"{'monday': False, 'tuesday': False, 'friday': True, 'wednesday': False, 'thursday': True, 'sunday': False, 'saturday': True}"},"categories":"Performing Arts, Nightlife, Arts & Entertainment, Comedy Clubs","hours":{"Thursday":"21:0-22:0","Friday":"22:0-23:30","Saturday":"22:0-23:30"}}
{"business_id":"F_ztXGTHWN5Ixs8_VmAHpg","name":"Giant Food Store","address":"1055 Bustleton Pike","city":"Feasterville","state":"PA","postal_code":"19053","latitude":40.1530121,"longitude":-75.0003235,"stars":3.0,"review_count":9,"is_open":0,"attributes":{"BusinessParking":"{'garage': False, 'street': False, 'validated': False, 'lot': True, 'valet': False}","ByAppointmentOnly":"False","BusinessAcceptsCreditCards":"True","RestaurantsPriceRange2":"2","BikeParking":"True","Caters":"False","RestaurantsTakeOut":"True"},"categories":"Grocery, Personal Shopping, Specialty Food, Food, Shopping","hours":null}
{"business_id":"gknnQ0ARvRCdOjpIZ5UPpQ","name":"European Wax Center","address":"2902 West 86 St, Ste 120","city":"Indianapolis","state":"IN","postal_code":"46268","latitude":39.912543,"longitude":-86.211835,"stars":4.0,"review_count":55,"is_open":1,"attributes":{"OutdoorSeating":"False","DogsAllowed":"False","Caters":"False","BikeParking":"True","BusinessParking":"{'garage': False, 'street': False, 'validated': False, 'lot': True, 'valet': False}","RestaurantsReservations":"True","HasTV":"False","ByAppointmentOnly":"False","BusinessAcceptsCreditCards":"True","CoatCheck":"False","RestaurantsDelivery":"False","HappyHour":"False","WiFi":"u'no'","RestaurantsTakeOut":"False","RestaurantsPriceRange2":"2","RestaurantsTableService":"False","WheelchairAccessible":"True"},"categories":"Shopping, Beauty & Spas, Hair Removal, Cosmetics & Beauty Supply, Waxing, Skin Care","hours":{"Monday":"0:0-0:0","Tuesday":"8:30-20:0","Wednesday":"8:30-20:0","Thursday":"8:30-20:0","Friday":"8:30-20:0","Saturday":"8:0-18:0","Sunday":"10:0-18:0"}}
{"business_id":"SAsO6NFUiVPENX3nJA-KiQ","name":"Rolling Tacos","address":"10577 W Fairview Ave","city":"Boise","state":"ID","postal_code":"83704","latitude":43.619115,"longitude":-116.313904,"stars":3.5,"review_count":5,"is_open":0,"attributes":{"RestaurantsAttire":"'casual'","RestaurantsPriceRange2":"1","BusinessParking":"{'garage': False, 'street': False, 'validated': False, 'lot': False, 'valet': False}","GoodForKids":"True","RestaurantsDelivery":"False","WiFi":"'no'","BikeParking":"True","GoodForMeal":"{'dessert': False, 'latenight': False, 'lunch': False, 'dinner': False, 'brunch': False, 'breakfast': False}","Alcohol":"u'none'","RestaurantsReservations":"False","RestaurantsTakeOut":"True","HasTV":"False","BusinessAcceptsCreditCards":"True","Caters":"False","Ambience":"{'touristy': False, 'hipster': False, 'romantic': False, 'divey': False, 'intimate': False, 'trendy': False, 'upscale': False, 'classy': False, 'casual': False}","NoiseLevel":"u'average'","RestaurantsGoodForGroups":"True"},"categories":"Mexican, Seafood, Food, Street Vendors, Food Trucks, Restaurants","hours":{"Tuesday":"11:0-20:0","Wednesday":"11:0-20:0","Thursday":"11:0-20:0","Friday":"11:0-21:30","Saturday":"11:0-21:30","Sunday":"11:0-21:0"}}
{"business_id":"g9L4Y9EgNzcj77zQkXK1rA","name":"Massage Envy - Manchester at Baxter Shops","address":"14523A Manchester Rd","city":"Manchester","state":"MO","postal_code":"63011","latitude":38.5937591,"longitude":-90.522135,"stars":3.0,"review_count":8,"is_open":1,"attributes":{"ByAppointmentOnly":"True","BusinessAcceptsCreditCards":"True","RestaurantsPriceRange2":"2","BikeParking":"False","WiFi":"u'free'","WheelchairAccessible":"True"},"categories":"Beauty & Spas, Massage Therapy, Automotive, Skin Care, Massage, Health & Medical","hours":{"Monday":"8:0-20:0","Tuesday":"8:0-22:0","Wednesday":"8:0-22:0","Thursday":"8:0-20:0","Friday":"8:0-20:0","Saturday":"10:0-20:0","Sunday":"10:0-20:0"}}
{"business_id":"XyGRDrgCK0z4CiA6nhwEaw","name":"Persian Room Fine Dining","address":"9290 N Thornydale Rd, Ste 100","city":"Tucson","state":"AZ","postal_code":"85742","latitude":32.3750163,"longitude":-111.0463201,"stars":4.5,"review_count":258,"is_open":1,"attributes":{"Alcohol":"'full_bar'","GoodForMeal":"{'dessert': True, 'latenight': None, 'lunch': True, 'dinner': True, 'brunch': None, 'breakfast': None}","Caters":"True","OutdoorSeating":"False","WiFi":"'no'","RestaurantsReservations":"True","BusinessParking":"{'garage': None, 'street': False, 'validated': False, 'lot': True, 'valet': False}","BusinessAcceptsCreditCards":"True","NoiseLevel":"'quiet'","HasTV":"True","RestaurantsTakeOut":"True","RestaurantsGoodForGroups":"True","RestaurantsPriceRange2":"2","RestaurantsTableService":"True","HappyHour":"True","DogsAllowed":"False","Ambience":"{'touristy': False, 'hipster': False, 'romantic': True, 'divey': False, 'intimate': True, 'trendy': True, 'upscale': True, 'classy': True, 'casual': False}","RestaurantsAttire":"u'casual'","RestaurantsDelivery":"True","GoodForKids":"True"},"categories":"Restaurants, Persian\/Iranian, Mediterranean","hours":{"Monday":"11:0-21:30","Tuesday":"11:0-21:30","Wednesday":"11:0-21:30","Thursday":"11:0-21:30","Friday":"11:0-22:30","Saturday":"11:0-22:30","Sunday":"11:0-21:30"}}
{"business_id":"cwvpVlg5BE2XXRWTHe3p9w","name":"McDonald's","address":"3110 Sr 674","city":"Sun City Center","state":"FL","postal_code":"33570","latitude":27.7137051861,"longitude":-82.3929427564,"stars":2.0,"review_count":24,"is_open":1,"attributes":{"RestaurantsReservations":"False","Caters":"False","RestaurantsTakeOut":"True","BusinessAcceptsCreditCards":"True","RestaurantsGoodForGroups":"True","OutdoorSeating":"False","WiFi":"'free'","GoodForKids":"True","NoiseLevel":"'average'","GoodForMeal":"{'dessert': False, 'latenight': False, 'lunch': False, 'dinner': False, 'brunch': False, 'breakfast': True}","RestaurantsAttire":"'casual'","Ambience":"{'romantic': False, 'intimate': False, 'classy': False, 'hipster': False, 'divey': False, 'touristy': False, 'trendy': False, 'upscale': False, 'casual': False}","Alcohol":"'none'","BusinessParking":"{'garage': False, 'street': False, 'validated': False, 'lot': True, 'valet': False}","RestaurantsPriceRange2":"1","RestaurantsDelivery":"True","HasTV":"True","DriveThru":"True","BikeParking":"False"},"categories":"Food, Burgers, Coffee & Tea, Fast Food, Restaurants","hours":{"Monday":"0:0-0:0","Tuesday":"0:0-0:0","Wednesday":"0:0-0:0","Thursday":"0:0-0:0","Friday":"0:0-0:0","Saturday":"0:0-0:0","Sunday":"0:0-0:0"}}
{"business_id":"WofOgU_SBaIuerkGgtax4w","name":"IndyWest Harley-Davidson","address":"6201 Cambridge Way","city":"Plainfield","state":"IN","postal_code":"46168","latitude":39.6721645,"longitude":-86.3680012,"stars":3.5,"review_count":12,"is_open":1,"attributes":{"BusinessAcceptsCreditCards":"False","BusinessParking":"{'garage': False, 'street': False, 'validated': False, 'lot': False, 'valet': False}","RestaurantsPriceRange2":"3","BikeParking":"True"},"categories":"Motorcycle Gear, Motorcycle Repair, Automotive, Shopping, Motorcycle Dealers","hours":{"Monday":"10:0-18:0","Tuesday":"10:0-18:0","Wednesday":"10:0-18:0","Thursday":"10:0-18:0","Friday":"10:0-18:0","Saturday":"10:0-17:0"}}
{"business_id":"zJFs_-Qtw7fzAsrQvA3Ltw","name":"El Carrito","address":"340 Kietzke Ln","city":"Reno","state":"NV","postal_code":"89502","latitude":39.5251254,"longitude":-119.7886252,"stars":5.0,"review_count":6,"is_open":1,"attributes":{"OutdoorSeating":"False","Alcohol":"u'none'","RestaurantsTakeOut":"True","Caters":"False","RestaurantsTableService":"False","BikeParking":"True","BYOB":"False","RestaurantsDelivery":"False","HasTV":"False","BusinessParking":"{'garage': False, 'street': False, 'validated': False, 'lot': False, 'valet': False}","WiFi":"u'no'","Corkage":"False","BusinessAcceptsCreditCards":"False","WheelchairAccessible":"True"},"categories":"Street Vendors, Food, Restaurants, Mexican, Food Stands","hours":{"Friday":"18:0-22:30","Saturday":"18:0-22:30","Sunday":"10:30-15:0"}}
{"business_id":"PaqDZUu76fZtMvcYqCEBig","name":"Rincon Brewery","address":"205 Santa Barbara St","city":"Santa Barbara","state":"CA","postal_code":"93101","latitude":34.4161821,"longitude":-119.6897762,"stars":4.0,"review_count":32,"is_open":1,"attributes":{"BusinessAcceptsBitcoin":"False","RestaurantsTakeOut":"True","Caters":"False","RestaurantsDelivery":"True","BikeParking":"True","BusinessAcceptsCreditCards":"True","WheelchairAccessible":"True","BusinessParking":"{'garage': False, 'street': True, 'validated': False, 'lot': True, 'valet': False}","DogsAllowed":"True"},"categories":"Breweries, Brewpubs, Food","hours":{"Monday":"11:30-19:0","Thursday":"11:30-21:0","Friday":"11:30-21:0","Saturday":"11:30-21:0","Sunday":"11:30-19:0"}}
{"business_id":"bwlSGCjYLNwzXVD9CB_8EA","name":"Hugs & Yogurt Cafe","address":"2844 W Moreland Rd","city":"Willow Grove","state":"PA","postal_code":"19090","latitude":40.1478414,"longitude":-75.1280399,"stars":4.0,"review_count":15,"is_open":0,"attributes":{"Caters":"False","WiFi":"u'free'","Alcohol":"u'none'","HasTV":"True","BikeParking":"True","RestaurantsReservations":"False","RestaurantsAttire":"'casual'","RestaurantsDelivery":"False","NoiseLevel":"'quiet'","RestaurantsPriceRange2":"1","BusinessAcceptsCreditCards":"True","RestaurantsGoodForGroups":"True","GoodForKids":"True","Ambience":"{'romantic': False, 'intimate': False, 'touristy': False, 'hipster': False, 'divey': False, 'classy': False, 'trendy': False, 'upscale': False, 'casual': True}","BusinessParking":"{'garage': False, 'street': False, 'validated': False, 'lot': True, 'valet': False}","RestaurantsTakeOut":"True","OutdoorSeating":"False"},"categories":"Ice Cream & Frozen Yogurt, Cafes, Juice Bars & Smoothies, Coffee & Tea, Food, Restaurants, Desserts","hours":{"Monday":"12:0-22:0","Tuesday":"12:0-22:0","Wednesday":"12:0-22:0","Thursday":"12:0-22:0","Friday":"12:0-23:0","Saturday":"12:0-23:0","Sunday":"12:0-22:0"}}
{"business_id":"IlmrY5oXdPKsUAXrvIJJJg","name":"Rogo's Window Cleaning","address":"","city":"Tampa","state":"FL","postal_code":"33616","latitude":27.8686895,"longitude":-82.5239953,"stars":5.0,"review_count":5,"is_open":1,"attributes":{"BusinessAcceptsCreditCards":"False","ByAppointmentOnly":"True","BusinessAcceptsBitcoin":"False"},"categories":"Gutter Services, Window Washing, Home Services, Pressure Washers","hours":{"Monday":"7:30-17:0","Tuesday":"7:30-17:0","Wednesday":"7:30-17:0","Thursday":"7:30-17:0","Friday":"7:30-17:0","Saturday":"7:30-17:0"}}
{"business_id":"RuVeJ30UzNEryARU0HbQlg","name":"Conway Park","address":"12301 Conway Rd","city":"Creve Coeur","state":"MO","postal_code":"63141","latitude":38.6488553663,"longitude":-90.4507593065,"stars":4.0,"review_count":6,"is_open":1,"attributes":{"ByAppointmentOnly":"False","BusinessParking":"{'garage': False, 'street': False, 'validated': False, 'lot': True, 'valet': False}","GoodForKids":"True"},"categories":"Dog Parks, Parks, Active Life","hours":null}
{"business_id":"V3e1h5A4QdscxeChOxri4Q","name":"Winn-Dixie","address":"1640 US Highway 19","city":"Holiday","state":"FL","postal_code":"34691","latitude":28.1833634069,"longitude":-82.7391889274,"stars":3.0,"review_count":9,"is_open":1,"attributes":{"RestaurantsPriceRange2":"2","BusinessAcceptsCreditCards":"True","BikeParking":"True","BusinessParking":"{'garage': False, 'street': None, 'validated': False, 'lot': None, 'valet': False}","RestaurantsDelivery":"True","RestaurantsTakeOut":"True"},"categories":"Food, Grocery","hours":null}
{"business_id":"tSA7UmRcc4llUA2RcDrE7A","name":"Advocare Arthritis Osteoporosis & Rheumatology Associates","address":"123 Egg Harbor Rd, Ste 804","city":"Washington Township","state":"NJ","postal_code":"08080","latitude":39.7805266424,"longitude":-75.1014562971,"stars":1.5,"review_count":8,"is_open":1,"attributes":{"ByAppointmentOnly":"True","AcceptsInsurance":"True","BusinessAcceptsCreditCards":"True"},"categories":"Rheumatologists, Doctors, Health & Medical","hours":null}
{"business_id":"mygIk3l_ShNNB-QbWlrRyg","name":"Zydeco's","address":"7010 Hwy 23","city":"Belle Chasse","state":"LA","postal_code":"70037","latitude":29.8777671,"longitude":-90.0173044,"stars":3.5,"review_count":161,"is_open":1,"attributes":{"RestaurantsTakeOut":"True","HasTV":"True","BikeParking":"True","RestaurantsReservations":"False","Alcohol":"u'full_bar'","RestaurantsPriceRange2":"2","RestaurantsDelivery":"False","BusinessParking":"{'garage': False, 'street': False, 'validated': False, 'lot': True, 'valet': False}","RestaurantsAttire":"u'casual'","WiFi":"u'no'","NoiseLevel":"u'average'","BusinessAcceptsCreditCards":"True","RestaurantsGoodForGroups":"True","OutdoorSeating":"False","GoodForMeal":"{'dessert': False, 'latenight': False, 'lunch': True, 'dinner': True, 'brunch': False, 'breakfast': False}","RestaurantsTableService":"True","WheelchairAccessible":"True","Ambience":"{'touristy': False, 'hipster': False, 'romantic': False, 'divey': None, 'intimate': False, 'trendy': False, 'upscale': False, 'classy': False, 'casual': True}","GoodForKids":"True","Corkage":"True","BYOB":"False","HappyHour":"False","DogsAllowed":"False","Caters":"False"},"categories":"Restaurants, Cajun\/Creole, American (New), Seafood","hours":{"Monday":"11:0-21:0","Wednesday":"11:0-21:0","Thursday":"11:0-21:0","Friday":"11:0-22:0","Saturday":"11:0-22:0","Sunday":"11:0-21:0"}}
{"business_id":"BiBwdFcG0ynK50_g7zJTOg","name":"Chopt Creative Salad Co.","address":"211 Franklin Rd, Ste 160","city":"Brentwood","state":"TN","postal_code":"37027","latitude":36.032004,"longitude":-86.79085,"stars":3.5,"review_count":135,"is_open":1,"attributes":{"GoodForKids":"True","BusinessAcceptsCreditCards":"True","Alcohol":"'none'","WiFi":"'free'","RestaurantsPriceRange2":"2","Caters":"True","NoiseLevel":"u'average'","RestaurantsReservations":"False","RestaurantsGoodForGroups":"True","RestaurantsAttire":"'casual'","RestaurantsTableService":"False","GoodForMeal":"{'dessert': None, 'latenight': None, 'lunch': True, 'dinner': None, 'brunch': None, 'breakfast': None}","OutdoorSeating":"True","HasTV":"True","RestaurantsTakeOut":"True","Ambience":"{'touristy': False, 'hipster': None, 'romantic': False, 'divey': False, 'intimate': False, 'trendy': True, 'upscale': False, 'classy': False, 'casual': True}","RestaurantsDelivery":"True","BusinessParking":"{'garage': None, 'street': True, 'validated': False, 'lot': False, 'valet': False}"},"categories":"Restaurants, Vegetarian, Salad, Wraps","hours":{"Monday":"0:0-0:0","Tuesday":"10:30-20:0","Wednesday":"10:30-19:0","Thursday":"10:30-20:0","Friday":"10:30-20:0","Saturday":"10:30-20:0","Sunday":"10:30-19:0"}}
{"business_id":"aIc2fDKD3MxfyGTEsqpXig","name":"JumpMaxx","address":"7430 E 29th St","city":"Tucson","state":"AZ","postal_code":"85710","latitude":32.2001849,"longitude":-110.8332661,"stars":2.5,"review_count":16,"is_open":1,"attributes":{"GoodForKids":"False"},"categories":"Party Equipment Rentals, Party Supplies, Event Planning & Services, Active Life, Playgrounds","hours":null}
{"business_id":"m48REm7mYngSTIa_RwP1Uw","name":"Noble Nails","address":"14160 Mundy Dr","city":"Noblesville","state":"IN","postal_code":"46060","latitude":39.9946062,"longitude":-86.0022306,"stars":3.0,"review_count":24,"is_open":1,"attributes":{"ByAppointmentOnly":"False","RestaurantsPriceRange2":"2","BusinessAcceptsCreditCards":"True","BusinessParking":"{'garage': False, 'street': False, 'validated': False, 'lot': False, 'valet': False}","BikeParking":"False"},"categories":"Beauty & Spas, Nail Salons","hours":null}
{"business_id":"Ryt1Fhgz7sixMQSJiLyP_g","name":"Zocalo","address":"3600 Lancaster Ave","city":"Philadelphia","state":"PA","postal_code":"19104","latitude":39.9584222,"longitude":-75.1938661,"stars":2.5,"review_count":59,"is_open":0,"attributes":{"Corkage":"False","RestaurantsDelivery":"False","BusinessParking":"{'garage': False, 'street': True, 'validated': False, 'lot': False, 'valet': False}","HasTV":"True","RestaurantsGoodForGroups":"True","BusinessAcceptsCreditCards":"True","RestaurantsPriceRange2":"2","OutdoorSeating":"True","RestaurantsTakeOut":"True","RestaurantsAttire":"'casual'","RestaurantsReservations":"True","NoiseLevel":"u'average'","Alcohol":"'full_bar'","Caters":"False","GoodForKids":"True","Ambience":"{'touristy': False, 'hipster': False, 'romantic': False, 'divey': False, 'intimate': False, 'trendy': False, 'upscale': False, 'classy': True, 'casual': True}","WiFi":"u'no'","HappyHour":"True","BYOBCorkage":"'yes_free'"},"categories":"Restaurants, Mexican","hours":{"Monday":"12:0-0:0","Tuesday":"12:0-0:0","Wednesday":"12:0-0:0","Thursday":"12:0-0:0","Friday":"12:0-0:0","Saturday":"12:0-0:0"}}
{"business_id":"B6qHZCAs7Nka-1zdjCzAIQ","name":"Butter's Soul Food","address":"2730 W Girard Ave","city":"Philadelphia","state":"PA","postal_code":"19130","latitude":39.9741307,"longitude":-75.1815903,"stars":3.0,"review_count":77,"is_open":1,"attributes":{"RestaurantsAttire":"u'casual'","GoodForKids":"True","RestaurantsGoodForGroups":"False","RestaurantsTakeOut":"True","Alcohol":"u'none'","Caters":"True","Ambience":"{'romantic': False, 'intimate': False, 'touristy': False, 'hipster': False, 'divey': False, 'classy': False, 'trendy': False, 'upscale': False, 'casual': True}","BusinessParking":"{'garage': False, 'street': True, 'validated': False, 'lot': False, 'valet': False}","BusinessAcceptsCreditCards":"True","NoiseLevel":"u'quiet'","WiFi":"u'no'","RestaurantsPriceRange2":"2","BikeParking":"True","GoodForMeal":"{'dessert': False, 'latenight': False, 'lunch': False, 'dinner': True, 'brunch': False, 'breakfast': False}","OutdoorSeating":"True","RestaurantsReservations":"False","HasTV":"True","RestaurantsDelivery":"True"},"categories":"Food, Caterers, Event Planning & Services, Restaurants, Soul Food","hours":{"Tuesday":"12:0-20:0","Wednesday":"12:0-20:0","Thursday":"12:0-20:0","Friday":"12:0-21:0","Saturday":"12:0-21:0","Sunday":"12:0-20:0"}}
{"business_id":"n8mdmsfP08DSAQSTNfd-fw","name":"George Thomas Florist","address":"5609 E Washington St","city":"Indianapolis","state":"IN","postal_code":"46219","latitude":39.7704227747,"longitude":-86.0717198253,"stars":4.5,"review_count":53,"is_open":1,"attributes":{"RestaurantsPriceRange2":"2","BusinessAcceptsCreditCards":"True","ByAppointmentOnly":"False","RestaurantsDelivery":"None","BikeParking":"True","BusinessParking":"{'garage': False, 'street': True, 'validated': False, 'lot': True, 'valet': False}","WiFi":"u'free'"},"categories":"Bridal, Shopping, Event Planning & Services, Floral Designers, Gift Shops, Home & Garden, Florists, Wedding Planning, Nurseries & Gardening, Flowers & Gifts","hours":{"Monday":"8:30-17:30","Tuesday":"8:30-17:30","Wednesday":"8:30-17:30","Thursday":"8:30-17:30","Friday":"8:30-17:30","Saturday":"8:30-16:0"}}
{"business_id":"p4CFV1F84REmO7hnfKT3jQ","name":"Goldfish Swim School - Oaks","address":"180 E Mill Rd","city":"Oaks","state":"PA","postal_code":"19456","latitude":40.1265782331,"longitude":-75.4550176705,"stars":4.5,"review_count":6,"is_open":1,"attributes":{"BusinessAcceptsCreditCards":"True"},"categories":"Fitness & Instruction, Active Life, Swimming Lessons\/Schools, Education, Specialty Schools","hours":{"Monday":"9:0-19:30","Tuesday":"9:0-19:30","Wednesday":"9:0-19:30","Thursday":"9:0-19:30","Friday":"10:0-15:0","Saturday":"9:0-13:0","Sunday":"9:0-13:0"}}
{"business_id":"h3801KOXLyOt8BAMa1V5HQ","name":"A&W","address":"222 Baseline Road","city":"Sherwood Park","state":"AB","postal_code":"T8H 1S8","latitude":53.5415746113,"longitude":-113.3188727252,"stars":3.0,"review_count":8,"is_open":1,"attributes":{"Ambience":"{'romantic': False, 'intimate': False, 'classy': False, 'upscale': False, 'touristy': False, 'trendy': False, 'hipster': False, 'casual': False}","RestaurantsAttire":"'casual'","GoodForKids":"True","RestaurantsGoodForGroups":"True","RestaurantsPriceRange2":"1","RestaurantsReservations":"False","RestaurantsDelivery":"True"},"categories":"Burgers, Restaurants, Fast Food","hours":{"Monday":"0:0-0:0","Tuesday":"0:0-0:0","Wednesday":"0:0-0:0","Thursday":"0:0-0:0","Friday":"0:0-0:0","Saturday":"0:0-0:0","Sunday":"0:0-0:0"}}
{"business_id":"reOj4e7RuKbx6LAuNUccVw","name":"JJ's Barbeque","address":"","city":"Oldsmar","state":"FL","postal_code":"34766","latitude":27.9472,"longitude":-82.4586,"stars":4.5,"review_count":7,"is_open":1,"attributes":{"RestaurantsPriceRange2":"1","BusinessAcceptsCreditCards":"True"},"categories":"Food Trucks, Food","hours":null}
{"business_id":"IsxFRZNNG8DnunxIOY41nA","name":"Birchwood Farm","address":"428 Brownsburg Rd","city":"Newtown","state":"PA","postal_code":"18940","latitude":40.2850547,"longitude":-74.9641354,"stars":4.0,"review_count":26,"is_open":1,"attributes":{"RestaurantsTakeOut":"False","BusinessParking":"{'garage': False, 'street': False, 'validated': False, 'lot': True, 'valet': False}","BikeParking":"True","BusinessAcceptsCreditCards":"True","RestaurantsPriceRange2":"2","Caters":"False"},"categories":"Food, Farmers Market","hours":null}
{"business_id":"rKwIFN1poV6gHBIxp3FxkA","name":"Hardee's","address":"4401 E 10th St","city":"Indianapolis","state":"IN","postal_code":"46201","latitude":39.781017,"longitude":-86.09366,"stars":2.5,"review_count":6,"is_open":1,"attributes":{"RestaurantsAttire":"u'casual'","BusinessAcceptsCreditCards":"True","NoiseLevel":"u'loud'","RestaurantsPriceRange2":"1","HasTV":"True","RestaurantsGoodForGroups":"False","GoodForKids":"True","RestaurantsTakeOut":"True","RestaurantsReservations":"False","Caters":"False","DriveThru":"True","RestaurantsDelivery":"True","OutdoorSeating":"None","Alcohol":"u'none'","BusinessParking":"{'garage': False, 'street': False, 'validated': False, 'lot': True, 'valet': False}","WiFi":"u'no'","Ambience":"{'touristy': False, 'hipster': False, 'romantic': False, 'divey': False, 'intimate': False, 'trendy': False, 'upscale': False, 'classy': False, 'casual': False}","RestaurantsTableService":"True"},"categories":"Restaurants, Burgers, Fast Food","hours":{"Monday":"0:0-0:0","Tuesday":"0:0-0:0","Wednesday":"0:0-0:0","Thursday":"0:0-0:0","Friday":"0:0-0:0","Saturday":"0:0-0:0","Sunday":"0:0-0:0"}}
{"business_id":"mtGTna-hyFhErb4Zma32IA","name":"The Village Diner","address":"299 Keswick Ave","city":"Glenside","state":"PA","postal_code":"19038","latitude":40.106526,"longitude":-75.147507,"stars":3.5,"review_count":80,"is_open":1,"attributes":{"WiFi":"'no'","RestaurantsGoodForGroups":"True","Caters":"False","BikeParking":"True","RestaurantsAttire":"u'casual'","OutdoorSeating":"True","GoodForKids":"True","RestaurantsPriceRange2":"1","RestaurantsTakeOut":"True","NoiseLevel":"u'average'","RestaurantsReservations":"False","Alcohol":"u'none'","RestaurantsDelivery":"False","BusinessParking":"{'garage': False, 'street': True, 'validated': False, 'lot': False, 'valet': False}","BusinessAcceptsCreditCards":"True","HasTV":"True","Ambience":"{'touristy': False, 'hipster': False, 'romantic': False, 'divey': False, 'intimate': False, 'trendy': False, 'upscale': False, 'classy': True, 'casual': True}"},"categories":"Diners, Food, Restaurants","hours":{"Monday":"7:0-14:30","Tuesday":"7:0-14:30","Wednesday":"7:0-14:30","Thursday":"7:0-14:30","Friday":"7:0-20:30","Saturday":"7:0-14:0","Sunday":"7:0-14:0"}}
{"business_id":"XQfwVwDr-v0ZS3_CbbE5Xw","name":"Turning Point of North Wales","address":"1460 Bethlehem Pike","city":"North Wales","state":"PA","postal_code":"19454","latitude":40.2101961875,"longitude":-75.2236385919,"stars":3.0,"review_count":169,"is_open":1,"attributes":{"NoiseLevel":"u'average'","HasTV":"False","RestaurantsAttire":"'casual'","BikeParking":"False","Ambience":"{'touristy': False, 'hipster': False, 'romantic': False, 'divey': False, 'intimate': False, 'trendy': False, 'upscale': False, 'classy': False, 'casual': True}","WiFi":"'free'","DogsAllowed":"False","Alcohol":"'none'","BusinessAcceptsCreditCards":"True","RestaurantsGoodForGroups":"True","RestaurantsPriceRange2":"2","RestaurantsReservations":"False","WheelchairAccessible":"True","BusinessAcceptsBitcoin":"False","RestaurantsTableService":"True","GoodForKids":"True","Caters":"False","HappyHour":"False","RestaurantsDelivery":"True","GoodForMeal":"{'dessert': False, 'latenight': False, 'lunch': True, 'dinner': False, 'brunch': True, 'breakfast': True}","OutdoorSeating":"True","RestaurantsTakeOut":"True","BusinessParking":"{'garage': False, 'street': False, 'validated': False, 'lot': True, 'valet': False}"},"categories":"Restaurants, Breakfast & Brunch, Food, Juice Bars & Smoothies, American (New), Coffee & Tea, Sandwiches","hours":{"Monday":"7:30-15:0","Tuesday":"7:30-15:0","Wednesday":"7:30-15:0","Thursday":"7:30-15:0","Friday":"7:30-15:0","Saturday":"7:30-15:0","Sunday":"7:30-15:0"}}
{"business_id":"tiVQ9_qoatNn--ITbMWRpA","name":"RJ's Bagels","address":"107 Makefield Rd","city":"Yardley","state":"PA","postal_code":"19067","latitude":40.201773,"longitude":-74.820914,"stars":4.0,"review_count":41,"is_open":1,"attributes":{"Caters":"True","RestaurantsTakeOut":"True","RestaurantsPriceRange2":"1","BusinessAcceptsCreditCards":"True","BikeParking":"True","BusinessParking":"{'garage': False, 'street': False, 'validated': False, 'lot': True, 'valet': False}"},"categories":"Food, Bagels, Restaurants","hours":null}
{"business_id":"6WJ-dFE9axF2o55NQWrNgA","name":"Tinker Coffee","address":"7800 Col H Weir Cook Memorial Dr","city":"Indianapolis","state":"IN","postal_code":"46241","latitude":39.7148812,"longitude":-86.2974891,"stars":3.5,"review_count":10,"is_open":1,"attributes":null,"categories":"Food, Coffee & Tea, Breakfast & Brunch, Restaurants, Coffee Roasteries","hours":null}
{"business_id":"9k0087JPHviddE06BjO-mw","name":"Foxy Olive","address":"220 Mill St","city":"Reno","state":"NV","postal_code":"89501","latitude":39.5249756,"longitude":-119.8088688,"stars":4.0,"review_count":44,"is_open":0,"attributes":{"Alcohol":"u'full_bar'","BusinessParking":"{'garage': False, 'street': True, 'validated': False, 'lot': False, 'valet': False}","OutdoorSeating":"False","BusinessAcceptsCreditCards":"True","RestaurantsPriceRange2":"1","HasTV":"True","RestaurantsGoodForGroups":"True","NoiseLevel":"u'average'","BestNights":"{'monday': True, 'tuesday': False, 'friday': True, 'wednesday': False, 'thursday': True, 'sunday': False, 'saturday': False}","BikeParking":"False","RestaurantsReservations":"False","RestaurantsAttire":"u'casual'","Music":"{'dj': False, 'background_music': False, 'no_music': False, 'jukebox': True, 'live': False, 'video': False, 'karaoke': False}","Ambience":"{'touristy': False, 'hipster': True, 'romantic': False, 'divey': True, 'intimate': False, 'trendy': None, 'upscale': False, 'classy': False, 'casual': None}","WiFi":"'free'","GoodForDancing":"False"},"categories":"Shopping, Dive Bars, Cocktail Bars, Nightlife, Arts & Entertainment, Art Galleries, Beer, Wine & Spirits, Food, Bars, Lounges","hours":{"Monday":"15:0-1:0","Tuesday":"15:0-1:0","Wednesday":"15:0-1:0","Thursday":"15:0-3:0","Friday":"15:0-3:0","Saturday":"15:0-3:0","Sunday":"15:0-1:0"}}
{"business_id":"pEYs1oVeJ6YM2SG5WEr5Pg","name":"Burger Theory","address":"8555 Stansted Dr","city":"Indianapolis","state":"IN","postal_code":"46241","latitude":39.675040703,"longitude":-86.3103263801,"stars":4.0,"review_count":86,"is_open":1,"attributes":{"RestaurantsAttire":"u'casual'","RestaurantsPriceRange2":"2","Caters":"True","NoiseLevel":"u'average'","OutdoorSeating":"True","Alcohol":"u'full_bar'","BusinessParking":"{'garage': False, 'street': False, 'validated': False, 'lot': True, 'valet': False}","RestaurantsTableService":"True","HasTV":"True","DriveThru":"False","WiFi":"u'free'","GoodForKids":"True","RestaurantsDelivery":"True","RestaurantsGoodForGroups":"True","Ambience":"{'romantic': False, 'intimate': False, 'classy': False, 'hipster': False, 'divey': False, 'touristy': False, 'trendy': False, 'upscale': False, 'casual': True}","RestaurantsTakeOut":"True","BikeParking":"False","RestaurantsReservations":"False","GoodForMeal":"{'dessert': True, 'latenight': False, 'lunch': True, 'dinner': False, 'brunch': False, 'breakfast': False}","BusinessAcceptsCreditCards":"True","WheelchairAccessible":"True"},"categories":"Burgers, Restaurants","hours":{"Monday":"17:0-22:0","Tuesday":"17:0-22:0","Wednesday":"17:0-22:0","Thursday":"17:0-22:0","Friday":"17:0-22:0","Saturday":"17:0-22:0","Sunday":"17:0-22:0"}}
{"business_id":"Bb3F76xkJrA-IwXLNK52RQ","name":"Alchemy Coffee","address":"119 S 21st St","city":"Philadelphia","state":"PA","postal_code":"19103","latitude":39.9511237,"longitude":-75.1755163,"stars":5.0,"review_count":19,"is_open":1,"attributes":{"RestaurantsTakeOut":"True","OutdoorSeating":"True","RestaurantsPriceRange2":"2","BusinessParking":"{u'valet': False, u'garage': None, u'street': None, u'lot': False, u'validated': None}","BusinessAcceptsCreditCards":"True","WiFi":"u'free'"},"categories":"Food, Coffee & Tea","hours":null}
{"business_id":"1cLhfVUILUQ9u6C9XtwcNg","name":"Sophie's Artist Lounge","address":"3333 Washington Ave, Ste 102","city":"St. Louis","state":"MO","postal_code":"63103","latitude":38.6382623,"longitude":-90.2273243,"stars":5.0,"review_count":12,"is_open":1,"attributes":{"RestaurantsPriceRange2":"2","Smoking":"u'outdoor'","CoatCheck":"False","BusinessParking":"{'garage': False, 'street': True, 'validated': False, 'lot': False, 'valet': False}","DogsAllowed":"False","HasTV":"False","BusinessAcceptsCreditCards":"True","BusinessAcceptsBitcoin":"False","HappyHour":"True","WheelchairAccessible":"True","Ambience":"{'touristy': False, 'hipster': False, 'romantic': False, 'divey': False, 'intimate': False, 'trendy': False, 'upscale': False, 'classy': True, 'casual': False}","Alcohol":"u'full_bar'","ByAppointmentOnly":"False","Music":"{u'dj': None, u'live': True, u'jukebox': False, u'video': False, u'background_music': False, u'karaoke': None, u'no_music': False}","RestaurantsReservations":"True","OutdoorSeating":"False","WiFi":"u'free'","BestNights":"{'monday': False, 'tuesday': False, 'friday': False, 'wednesday': False, 'thursday': False, 'sunday': False, 'saturday': False}","BikeParking":"True"},"categories":"Lounges, Bars, Nightlife, Arts & Entertainment, Art Galleries, Shopping, Cocktail Bars","hours":{"Monday":"0:0-0:0","Wednesday":"17:0-1:30","Thursday":"16:0-1:30","Friday":"16:0-1:30","Saturday":"16:0-1:30"}}
{"business_id":"-3-6BB10tIWNKGEF0Es2BA","name":"The 81 Hong Kong Cafe","address":"625 E Wetmore Rd, Ste 109","city":"Tucson","state":"AZ","postal_code":"85705","latitude":32.2885403,"longitude":-110.9631443,"stars":4.0,"review_count":133,"is_open":1,"attributes":{"Alcohol":"u'none'","DogsAllowed":"False","BusinessAcceptsCreditCards":"True","RestaurantsPriceRange2":"2","WiFi":"u'free'","RestaurantsTableService":"True","BYOB":"False","Corkage":"True","WheelchairAccessible":"True","HasTV":"True","Caters":"True","BusinessParking":"{u'valet': False, u'garage': False, u'street': True, u'lot': True, u'validated': True}","RestaurantsDelivery":"True","RestaurantsReservations":"True","BikeParking":"False","OutdoorSeating":"False","RestaurantsTakeOut":"True"},"categories":"Coffee & Tea, Asian Fusion, Food, Bubble Tea, Hong Kong Style Cafe, Taiwanese, Restaurants, Chinese","hours":{"Monday":"0:0-0:0","Wednesday":"10:0-21:0","Thursday":"10:0-21:0","Friday":"10:0-21:0","Saturday":"10:0-21:0","Sunday":"10:0-21:0"}}
{"business_id":"Vhs2KfLvpVAEqjDiwWgFVA","name":"Tampa Bay Dental Implants & Periodontics","address":"6700 Crosswinds Dr N, Ste 200B","city":"Saint Petersburg","state":"FL","postal_code":"33710","latitude":27.7894045,"longitude":-82.7316375,"stars":4.0,"review_count":14,"is_open":1,"attributes":{"ByAppointmentOnly":"True","BusinessAcceptsCreditCards":"True","WiFi":"u'free'"},"categories":"Health & Medical, Dentists, Oral Surgeons, Periodontists, Cosmetic Dentists","hours":{"Monday":"8:0-15:0","Tuesday":"8:0-17:0","Wednesday":"8:0-17:0","Thursday":"8:0-15:0","Friday":"8:0-12:0"}}
{"business_id":"fFSa8g7V2JqK2VhTdFkxDA","name":"Mowery","address":"710 E Main St","city":"Brownsburg","state":"IN","postal_code":"46112","latitude":39.8399283,"longitude":-86.3849475,"stars":2.0,"review_count":19,"is_open":1,"attributes":{"BusinessAcceptsCreditCards":"True","ByAppointmentOnly":"True"},"categories":"Air Duct Cleaning, Hot Tub & Pool, Plumbing, Professional Services, Heating & Air Conditioning\/HVAC, Home & Garden, Shopping, Home Services, Advertising, Local Services, Contractors, Fireplace Services","hours":{"Monday":"0:0-0:0","Tuesday":"0:0-0:0","Wednesday":"0:0-0:0","Thursday":"0:0-0:0","Friday":"0:0-0:0","Saturday":"0:0-0:0","Sunday":"0:0-0:0"}}
{"business_id":"78e90HO_R40SyzBr4fnHSA","name":"Primanti Bros - Indianapolis","address":"49 W Maryland St","city":"Indianapolis","state":"IN","postal_code":"46204","latitude":39.7655226364,"longitude":-86.1597495695,"stars":3.5,"review_count":221,"is_open":0,"attributes":{"BikeParking":"True","WiFi":"'free'","GoodForDancing":"False","RestaurantsReservations":"False","DogsAllowed":"False","RestaurantsPriceRange2":"2","BusinessParking":"{'garage': True, 'street': None, 'validated': False, 'lot': False, 'valet': False}","RestaurantsTableService":"True","Alcohol":"u'full_bar'","RestaurantsTakeOut":"True","RestaurantsDelivery":"True","RestaurantsAttire":"u'casual'","BusinessAcceptsCreditCards":"True","HasTV":"True","Caters":"True","NoiseLevel":"u'average'","HappyHour":"True","Music":"{'dj': False, 'background_music': False, 'no_music': False, 'jukebox': None, 'live': False, 'video': False, 'karaoke': None}","Ambience":"{'touristy': None, 'hipster': None, 'romantic': False, 'divey': False, 'intimate': False, 'trendy': None, 'upscale': False, 'classy': False, 'casual': True}","OutdoorSeating":"True","CoatCheck":"False","GoodForKids":"True","GoodForMeal":"{'dessert': False, 'latenight': None, 'lunch': True, 'dinner': True, 'brunch': None, 'breakfast': False}","RestaurantsGoodForGroups":"True","BestNights":"{'monday': False, 'tuesday': False, 'friday': False, 'wednesday': False, 'thursday': False, 'sunday': False, 'saturday': True}"},"categories":"American (New), Bars, Sandwiches, Salad, American (Traditional), Restaurants, Pizza, Sports Bars, Nightlife","hours":{"Monday":"11:0-20:0","Tuesday":"11:0-20:0","Wednesday":"11:0-20:0","Thursday":"11:0-20:0","Friday":"11:0-21:0","Saturday":"11:0-21:0","Sunday":"11:0-20:0"}}
{"business_id":"hVKUY2vqKSYSQq8PcSI38w","name":"MOTOVELO","address":"18140 Wedge Pkwy","city":"Reno","state":"NV","postal_code":"89502","latitude":39.395154,"longitude":-119.7662337,"stars":4.0,"review_count":5,"is_open":0,"attributes":{"BusinessAcceptsCreditCards":"True","BikeParking":"True","WheelchairAccessible":"True","DogsAllowed":"True","BusinessAcceptsBitcoin":"False","BusinessParking":"{'garage': False, 'street': True, 'validated': False, 'lot': False, 'valet': False}"},"categories":"Shopping, Sporting Goods, Bike Repair\/Maintenance, Local Services, Bikes, Mountain Biking, Active Life","hours":{"Wednesday":"10:0-17:0","Thursday":"10:0-17:0","Friday":"10:0-17:0","Saturday":"10:0-17:0","Sunday":"10:0-17:0"}}
{"business_id":"y7qvy9LcyK2hr_VcPBiPaQ","name":"Bicycle Revolutions","address":"1300 S Columbus Blvd, Ste 11B","city":"Philadelphia","state":"PA","postal_code":"19147","latitude":39.9304866315,"longitude":-75.1450844921,"stars":4.5,"review_count":94,"is_open":0,"attributes":{"BusinessAcceptsCreditCards":"True","RestaurantsPriceRange2":"2","BikeParking":"True","WheelchairAccessible":"True","BusinessParking":"{'garage': False, 'street': True, 'validated': False, 'lot': True, 'valet': False}"},"categories":"Bike Repair\/Maintenance, Local Services, Sporting Goods, Bikes, Shopping","hours":null}
{"business_id":"J1duow_JpO47UuqnrY_LaA","name":"Little Caesars Pizza","address":"1625 W Valencia Suite 111","city":"Tucson","state":"AZ","postal_code":"85746","latitude":32.1322587,"longitude":-110.9993545,"stars":2.0,"review_count":10,"is_open":1,"attributes":{"RestaurantsTakeOut":"True","RestaurantsReservations":"False","RestaurantsGoodForGroups":"False","RestaurantsPriceRange2":"1","Alcohol":"u'none'","GoodForMeal":"{'dessert': False, 'latenight': False, 'lunch': False, 'dinner': False, 'brunch': False, 'breakfast': False}","GoodForKids":"False","RestaurantsAttire":"'casual'","HasTV":"True","OutdoorSeating":"False","BusinessAcceptsCreditCards":"True","Ambience":"{'touristy': False, 'hipster': False, 'romantic': False, 'divey': False, 'intimate': False, 'trendy': False, 'upscale': False, 'classy': False, 'casual': False}","RestaurantsDelivery":"True","BusinessParking":"{'garage': False, 'street': None, 'validated': None, 'lot': None, 'valet': False}"},"categories":"Pizza, Restaurants, Fast Food","hours":{"Monday":"10:30-23:0","Tuesday":"10:30-23:0","Wednesday":"10:30-23:0","Thursday":"10:30-23:0","Friday":"10:30-0:0","Saturday":"10:30-0:0","Sunday":"10:30-23:0"}}
{"business_id":"V1rMpzTY9jkUvi8m4VoDRA","name":"Nail Story","address":"909 E Willow Grove Ave, Ste 102","city":"Wyndmoor","state":"PA","postal_code":"19038","latitude":40.0824730699,"longitude":-75.189028381,"stars":4.0,"review_count":13,"is_open":1,"attributes":{"ByAppointmentOnly":"False","BusinessAcceptsBitcoin":"False","WiFi":"u'free'","BusinessParking":"{'garage': False, 'street': True, 'validated': False, 'lot': True, 'valet': False}","BikeParking":"True","BusinessAcceptsCreditCards":"True","WheelchairAccessible":"True"},"categories":"Eyebrow Services, Nail Salons, Beauty & Spas, Hair Removal, Waxing","hours":{"Monday":"9:30-19:0","Tuesday":"9:30-19:0","Wednesday":"9:30-19:0","Thursday":"9:30-19:0","Friday":"9:30-19:0","Saturday":"9:0-18:0","Sunday":"10:0-17:0"}}
{"business_id":"GLvf1GDxghbiqLkzJIrl6g","name":"Daubenspeck Community Nature Park","address":"8900 Ditch Rd","city":"Indianapolis","state":"IN","postal_code":"46260","latitude":39.9170753,"longitude":-86.1841158,"stars":4.5,"review_count":10,"is_open":1,"attributes":{"GoodForKids":"True","BikeParking":"True","BusinessParking":"{'garage': False, 'street': False, 'validated': False, 'lot': True, 'valet': False}"},"categories":"Hiking, Active Life, Parks","hours":null}
{"business_id":"HDRXhkwl7s9x0e7vO5bXBg","name":"Ulysses S. Grant National Historic Site","address":"7400 Grant Rd","city":"Saint Louis","state":"MO","postal_code":"63123","latitude":38.55178,"longitude":-90.351592,"stars":4.5,"review_count":31,"is_open":1,"attributes":null,"categories":"Landmarks & Historical Buildings, Public Services & Government","hours":{"Monday":"9:0-17:0","Tuesday":"9:0-17:0","Wednesday":"9:0-17:0","Thursday":"9:0-17:0","Friday":"9:0-17:0","Saturday":"9:0-17:0","Sunday":"9:0-17:0"}}
{"business_id":"KXm3Q3nloJDD5_DLjZqtXw","name":"Frontier Pest Control","address":"","city":"Reno","state":"NV","postal_code":"89523","latitude":39.5444839,"longitude":-119.950926,"stars":4.5,"review_count":10,"is_open":1,"attributes":{"BusinessAcceptsCreditCards":"True","BusinessAcceptsBitcoin":"False"},"categories":"Pest Control, Local Services","hours":{"Monday":"8:0-17:0","Tuesday":"8:0-17:0","Wednesday":"8:0-17:0","Thursday":"8:0-17:0","Friday":"8:0-17:0"}}
{"business_id":"PnKcjc4JKEb78lXw1aDoww","name":"LuLu Boutique & Gifterie","address":"12 S Main St","city":"Phoenixville","state":"PA","postal_code":"19460","latitude":40.1776152,"longitude":-75.5455037,"stars":4.0,"review_count":15,"is_open":1,"attributes":{"RestaurantsPriceRange2":"2","BikeParking":"True","BusinessParking":"{'garage': False, 'street': True, 'validated': False, 'lot': False, 'valet': False}","BusinessAcceptsCreditCards":"True"},"categories":"Thrift Stores, Used, Vintage & Consignment, Accessories, Women's Clothing, Shopping, Fashion","hours":{"Tuesday":"12:0-19:0","Wednesday":"12:0-19:0","Thursday":"12:0-19:0","Friday":"12:0-19:0","Saturday":"12:0-19:0","Sunday":"12:0-16:0"}}
{"business_id":"zhFKtchGIpRTfOZSpm4Zvg","name":"Capriotti's Sandwich Shop","address":"117 E Swedesford Rd","city":"Exton","state":"PA","postal_code":"19341","latitude":40.0361194,"longitude":-75.6286593294,"stars":3.5,"review_count":38,"is_open":1,"attributes":{"RestaurantsGoodForGroups":"True","RestaurantsReservations":"False","GoodForKids":"True","RestaurantsPriceRange2":"1","RestaurantsTakeOut":"True","NoiseLevel":"u'average'","HasTV":"True","BusinessAcceptsCreditCards":"True","Caters":"True","Alcohol":"u'none'","RestaurantsDelivery":"True","OutdoorSeating":"True","RestaurantsAttire":"u'casual'","BusinessParking":"{'garage': False, 'street': False, 'validated': False, 'lot': True, 'valet': False}","WiFi":"u'no'","BikeParking":"True","GoodForMeal":"{'dessert': False, 'latenight': False, 'lunch': True, 'dinner': True, 'brunch': False, 'breakfast': False}","Ambience":"{'touristy': False, 'hipster': False, 'romantic': False, 'divey': False, 'intimate': None, 'trendy': False, 'upscale': None, 'classy': False, 'casual': True}","WheelchairAccessible":"True"},"categories":"Sandwiches, Cheesesteaks, Vegetarian, Restaurants, Salad","hours":{"Monday":"0:0-0:0","Tuesday":"11:0-18:0","Wednesday":"0:0-17:0","Thursday":"11:0-19:0","Friday":"11:0-20:0","Saturday":"11:0-20:0","Sunday":"11:0-18:0"}}
{"business_id":"Z8aFAq2ANvXQJPKko1p41Q","name":"Mr Wizard of Aston","address":"3491 Concord Rd","city":"Aston","state":"PA","postal_code":"19014","latitude":39.8667154,"longitude":-75.4248676,"stars":3.5,"review_count":9,"is_open":1,"attributes":{"BusinessAcceptsCreditCards":"True"},"categories":"Automotive, Car Wash","hours":{"Monday":"7:0-20:0","Tuesday":"7:0-20:0","Wednesday":"7:0-20:0","Thursday":"7:0-20:0","Friday":"7:0-20:0","Saturday":"7:0-20:0","Sunday":"8:0-18:0"}}
{"business_id":"o6ka0FqoToYMXCRVajtXIQ","name":"Stio's Water Ice And Ice Cream Washington Township","address":"138 Fries Mill Rd","city":"Washington Township","state":"NJ","postal_code":"08012","latitude":39.7455561557,"longitude":-75.045697375,"stars":5.0,"review_count":6,"is_open":1,"attributes":{"RestaurantsPriceRange2":"2","RestaurantsTakeOut":"True","BusinessParking":"{'garage': False, 'street': False, 'validated': False, 'lot': False, 'valet': False}","BusinessAcceptsCreditCards":"True"},"categories":"Desserts, Food","hours":null}
{"business_id":"ZpXgr1Vq2wl1qS2SWB-eoQ","name":"CYCLEBAR","address":"12697 Pennsylvania St","city":"Carmel","state":"IN","postal_code":"46032","latitude":39.972418,"longitude":-86.154563,"stars":4.5,"review_count":40,"is_open":1,"attributes":{"BusinessAcceptsCreditCards":"True","ByAppointmentOnly":"True","GoodForKids":"False","BikeParking":"True","BusinessParking":"{'garage': False, 'street': True, 'validated': False, 'lot': True, 'valet': False}"},"categories":"Cycling Classes, Gyms, Fitness & Instruction, Active Life","hours":{"Monday":"16:30-19:30","Tuesday":"16:30-19:0","Wednesday":"16:30-19:30","Thursday":"16:30-19:0","Friday":"16:30-18:30","Saturday":"8:0-12:30","Sunday":"9:0-11:0"}}
{"business_id":"nIE7ph1w_bttQMJQx5hUEQ","name":"D-Town Bar & Grill","address":"1056 Main St","city":"Dunedin","state":"FL","postal_code":"34698","latitude":28.0192509782,"longitude":-82.774851719,"stars":3.0,"review_count":91,"is_open":1,"attributes":{"GoodForMeal":"{'dessert': False, 'latenight': False, 'lunch': False, 'dinner': False, 'brunch': False, 'breakfast': False}","HappyHour":"True","Caters":"False","Corkage":"False","WheelchairAccessible":"True","BusinessParking":"{'garage': False, 'street': False, 'validated': False, 'lot': True, 'valet': False}","NoiseLevel":"'average'","BusinessAcceptsBitcoin":"False","RestaurantsAttire":"'casual'","BusinessAcceptsCreditCards":"True","RestaurantsTableService":"True","HasTV":"True","DriveThru":"False","BikeParking":"True","RestaurantsPriceRange2":"2","CoatCheck":"False","RestaurantsGoodForGroups":"True","RestaurantsTakeOut":"True","Alcohol":"'full_bar'","WiFi":"'free'","GoodForDancing":"False","BYOB":"False","Smoking":"u'outdoor'","Music":"{u'dj': False, u'live': None, u'jukebox': False, u'video': False, u'background_music': False, u'karaoke': None, u'no_music': False}","RestaurantsReservations":"True","Ambience":"{u'divey': False, u'hipster': False, u'casual': True, u'touristy': None, u'trendy': False, u'intimate': None, u'romantic': False, u'classy': False, u'upscale': None}","OutdoorSeating":"False","RestaurantsDelivery":"True","DogsAllowed":"False","GoodForKids":"True"},"categories":"Sports Bars, Nightlife, American (Traditional), Breakfast & Brunch, Cafes, Restaurants, Burgers, Bars","hours":{"Monday":"0:0-0:0","Tuesday":"11:0-21:0","Wednesday":"11:0-21:0","Thursday":"11:0-21:0","Friday":"11:0-21:0","Saturday":"11:0-21:0","Sunday":"11:0-21:0"}}
{"business_id":"kIuh5i5w9zII_-yQhqdbgA","name":"Becker ENT Center - Sewell","address":"570 Egg Harbor Rd, Ste B-2","city":"Sewell","state":"NJ","postal_code":"08080","latitude":39.7343488,"longitude":-75.062286,"stars":3.0,"review_count":6,"is_open":1,"attributes":{"ByAppointmentOnly":"True","BusinessAcceptsCreditCards":"True"},"categories":"Doctors, Ear Nose & Throat, Health & Medical, Allergists, Audiologist, Cosmetic Surgeons","hours":{"Monday":"0:0-0:0","Tuesday":"8:0-17:0","Wednesday":"8:0-17:0","Thursday":"8:0-17:0","Friday":"8:0-17:0"}}
{"business_id":"JdRP7ZppyhhnK955Qcp20w","name":"Paola Beauty Boutique","address":"3802 Ehrlich Rd, Ste 202","city":"Tampa","state":"FL","postal_code":"33624","latitude":28.084008,"longitude":-82.507169,"stars":5.0,"review_count":36,"is_open":1,"attributes":{"BikeParking":"True","RestaurantsPriceRange2":"2","ByAppointmentOnly":"True","BusinessAcceptsCreditCards":"True","BusinessParking":"{'garage': False, 'street': False, 'validated': False, 'lot': False, 'valet': False}"},"categories":"Eyelash Service, Nail Salons, Hair Removal, Beauty & Spas, Day Spas, Skin Care","hours":{"Monday":"0:0-0:0","Tuesday":"9:30-17:30","Wednesday":"9:30-17:30","Thursday":"9:30-17:30","Friday":"9:30-17:30","Saturday":"10:0-14:0"}}
{"business_id":"C7-MkOrqxL_QZhNVr_QBfw","name":"Atlantic Bedding and Furniture","address":"401 Harding Industrial Dr","city":"Nashville","state":"TN","postal_code":"37211","latitude":36.0894925,"longitude":-86.6895662,"stars":3.5,"review_count":15,"is_open":0,"attributes":{"RestaurantsPriceRange2":"1","BusinessParking":"{'garage': False, 'street': False, 'validated': False, 'lot': True, 'valet': False}","BusinessAcceptsCreditCards":"True","BikeParking":"False"},"categories":"Furniture Stores, Home & Garden, Shopping, Mattresses","hours":{"Monday":"0:0-0:0","Tuesday":"10:0-19:0","Wednesday":"10:0-19:0","Thursday":"10:0-19:0","Friday":"10:0-19:0","Saturday":"10:0-19:0","Sunday":"12:0-17:0"}}
{"business_id":"HzIw9Tc7gD75nX9VGg0Pwg","name":"Five Hearts Preschool","address":"12710 Thunderbolt Dr","city":"Reno","state":"NV","postal_code":"89511","latitude":39.4162884,"longitude":-119.7698827,"stars":4.5,"review_count":8,"is_open":1,"attributes":null,"categories":"Preschools, Education","hours":{"Monday":"8:30-16:0","Tuesday":"8:30-16:0","Wednesday":"8:30-16:0","Thursday":"8:30-16:0","Friday":"8:30-16:0"}}
{"business_id":"F6lNQPwg4gyg76wNyimxjQ","name":"Ride The Ducks","address":"6th and Market Streets","city":"Philadelphia","state":"PA","postal_code":"19106","latitude":39.950968,"longitude":-75.150328,"stars":3.5,"review_count":83,"is_open":0,"attributes":null,"categories":"Tours, Local Flavor, Hotels & Travel","hours":null}
{"business_id":"mtdW6vnFQdkiD5R5NCGrQQ","name":"Zen Reflexology & Massage Spa","address":"7112 E Broadway Blvd","city":"Tucson","state":"AZ","postal_code":"85710","latitude":32.220567,"longitude":-110.8402663,"stars":3.0,"review_count":24,"is_open":1,"attributes":{"BusinessAcceptsCreditCards":"True","ByAppointmentOnly":"False","AcceptsInsurance":"False"},"categories":"Reflexology, Health & Medical, Beauty & Spas, Massage, Massage Therapy","hours":{"Monday":"10:0-22:0","Tuesday":"10:0-22:0","Wednesday":"10:0-22:0","Thursday":"10:0-22:0","Friday":"10:0-22:0","Saturday":"10:0-22:0","Sunday":"10:0-22:0"}}
{"business_id":"AAFofLiyt_K1Ar_eEuVc7g","name":"Crowne Plaza Hotel Philadelphia Downtown","address":"1800 Market St","city":"Philadelphia","state":"PA","postal_code":"19103","latitude":39.9528337,"longitude":-75.1703455,"stars":3.0,"review_count":59,"is_open":0,"attributes":{"RestaurantsPriceRange2":"2","BusinessAcceptsCreditCards":"True","WiFi":"u'free'"},"categories":"Venues & Event Spaces, Hotels, Event Planning & Services, Hotels & Travel","hours":null}
{"business_id":"R9ZtI-fSkarGx8RqmD-AJg","name":"Carondelet Medical Group - Riverstone","address":"4892 N Stone Ave, Ste 100","city":"Tucson","state":"AZ","postal_code":"85704","latitude":32.2951546,"longitude":-110.9702987,"stars":2.0,"review_count":5,"is_open":1,"attributes":null,"categories":"Obstetricians & Gynecologists, Doctors, Health & Medical, Family Practice, Cardiologists","hours":null}
{"business_id":"XZN4nllA4qMdXVHy_-nqHg","name":"Jefferson Dental Associates","address":"834 Chestnut St, Ste 415","city":"Philadelphia","state":"PA","postal_code":"19107","latitude":39.9496879547,"longitude":-75.1551404166,"stars":4.0,"review_count":41,"is_open":1,"attributes":{"ByAppointmentOnly":"True","BusinessAcceptsCreditCards":"True","WiFi":"u'free'","AcceptsInsurance":"True"},"categories":"Pediatric Dentists, Oral Surgeons, Health & Medical, General Dentistry, Endodontists, Cosmetic Dentists, Dentists, Periodontists","hours":{"Monday":"8:0-17:0","Tuesday":"8:0-17:0","Wednesday":"8:0-17:0","Thursday":"8:0-17:0","Friday":"8:0-16:0"}}
