{"business_id":"zg9szTOwPaKIaL4A-qaDrA","name":"Piercing Pagoda","address":"160 N Gulph Rd, Ste K 1028, King of Prussia Mall","city":"King of Prussia","state":"PA","postal_code":"19406","latitude":40.088312,"longitude":-75.392949,"stars":2.0,"review_count":5,"is_open":1,"attributes":null,"categories":"Shopping, Piercing, Beauty & Spas, Jewelry","hours":{"Monday":"10:0-21:0","Tuesday":"10:0-21:0","Wednesday":"10:0-21:0","Thursday":"10:0-21:0","Friday":"10:0-21:0","Saturday":"10:0-21:0","Sunday":"11:0-18:0"}}
{"business_id":"r7Jk4-jXpBs0AfMVSJ9tAA","name":"Stone Interiors - New Orleans","address":"99 E Airline Hwy","city":"Kenner","state":"LA","postal_code":"70062","latitude":29.981394,"longitude":-90.2722838,"stars":2.0,"review_count":5,"is_open":1,"attributes":{"ByAppointmentOnly":"False","BusinessAcceptsCreditCards":"True"},"categories":"Building Supplies, Shopping, Home & Garden, Flooring, Kitchen & Bath, Masonry\/Concrete, Home Services, Countertop Installation","hours":{"Monday":"0:0-0:0","Tuesday":"8:0-17:0","Wednesday":"8:0-17:0","Thursday":"8:0-17:0","Friday":"8:0-17:0","Saturday":"9:0-13:0"}}
{"business_id":"9dm_v79s9-pefMahqp1SkA","name":"Loco Mexican Restaurant & Cantina","address":"2205 N Delaware St","city":"Indianapolis","state":"IN","postal_code":"46205","latitude":39.7974826702,"longitude":-86.1530939541,"stars":4.0,"review_count":178,"is_open":1,"attributes":{"RestaurantsAttire":"u'casual'","Alcohol":"'full_bar'","RestaurantsGoodForGroups":"True","BusinessAcceptsCreditCards":"True","HasTV":"True","BusinessParking":"{'garage': False, 'street': True, 'validated': False, 'lot': True, 'valet': False}","RestaurantsReservations":"False","BikeParking":"True","RestaurantsTableService":"True","RestaurantsPriceRange2":"2","GoodForMeal":"{'dessert': None, 'latenight': None, 'lunch': True, 'dinner': True, 'brunch': None, 'breakfast': None}","OutdoorSeating":"True","RestaurantsDelivery":"True","GoodForKids":"True","Ambience":"{'touristy': False, 'hipster': None, 'romantic': False, 'divey': False, 'intimate': False, 'trendy': None, 'upscale': False, 'classy': True, 'casual': True}","NoiseLevel":"u'average'","RestaurantsTakeOut":"True","HappyHour":"True","WheelchairAccessible":"True","DogsAllowed":"True","BusinessAcceptsBitcoin":"False","DriveThru":"False","Caters":"True"},"categories":"Restaurants, Mexican","hours":{"Monday":"0:0-0:0","Tuesday":"11:0-22:0","Wednesday":"11:0-22:0","Thursday":"11:0-22:0","Friday":"11:0-22:0","Saturday":"11:0-22:0","Sunday":"11:0-21:0"}}
{"business_id":"DMmdMkh7sIhUHgVawGxY6g","name":"Farm Boy Fresh","address":"7 Lancaster Ave","city":"Malvern","state":"PA","postal_code":"19355","latitude":40.0442832,"longitude":-75.5241836,"stars":4.0,"review_count":11,"is_open":1,"attributes":{"BusinessParking":"{'garage': False, 'street': False, 'validated': False, 'lot': True, 'valet': False}","RestaurantsTakeOut":"True"},"categories":"Barbeque, Restaurants, American (New), Salad, Sandwiches, Breakfast & Brunch","hours":{"Thursday":"11:0-15:0","Friday":"11:0-15:0","Saturday":"10:30-15:0"}}
{"business_id":"7Jer4ZUmq_DlUtu8QJtPuQ","name":"ACME Markets","address":"3590 W Chester Pike","city":"Newtown Square","state":"PA","postal_code":"19073","latitude":39.9855035,"longitude":-75.3980436,"stars":2.5,"review_count":17,"is_open":1,"attributes":{"BusinessAcceptsCreditCards":"True","BusinessParking":"{'garage': False, 'street': False, 'validated': False, 'lot': True, 'valet': False}","RestaurantsPriceRange2":"2","Caters":"True","RestaurantsTakeOut":"True","RestaurantsDelivery":"True","BikeParking":"True"},"categories":"Food, Grocery, Drugstores, Shopping","hours":{"Monday":"0:0-0:0","Tuesday":"7:0-22:0","Wednesday":"7:0-22:0","Thursday":"7:0-16:0","Friday":"7:0-20:0","Saturday":"8:0-20:0","Sunday":"7:0-18:0"}}
{"business_id":"jS9BruaKtDv556mbwl3Onw","name":"La Belle Nail Spa","address":"550 Sam Ridley W Pkwy, Ste 130","city":"Smyrna","state":"TN","postal_code":"37167","latitude":35.98175,"longitude":-86.5586446,"stars":2.5,"review_count":27,"is_open":1,"attributes":{"BusinessAcceptsCreditCards":"True","BikeParking":"False","BusinessParking":"{'garage': False, 'street': False, 'validated': False, 'lot': False, 'valet': False}","RestaurantsPriceRange2":"2","NoiseLevel":"u'very_loud'","ByAppointmentOnly":"False"},"categories":"Nail Salons, Waxing, Skin Care, Nail Technicians, Hair Removal, Beauty & Spas","hours":{"Monday":"10:0-18:30","Tuesday":"10:0-18:30","Wednesday":"10:0-18:30","Thursday":"10:0-18:30","Friday":"10:0-18:30","Saturday":"10:0-18:30","Sunday":"12:0-17:0"}}
{"business_id":"nFjk0xVI9fNiVN__5g-m8Q","name":"Ichicoro Ane","address":"260 1st Ave S, Ste 100","city":"Saint Petersburg","state":"FL","postal_code":"33701","latitude":27.7701014,"longitude":-82.6364594,"stars":4.0,"review_count":264,"is_open":1,"attributes":{"WiFi":"u'free'","NoiseLevel":"'loud'","HasTV":"False","Ambience":"{'touristy': False, 'hipster': False, 'romantic': False, 'divey': False, 'intimate': True, 'trendy': True, 'upscale': False, 'classy': True, 'casual': True}","CoatCheck":"False","RestaurantsPriceRange2":"2","RestaurantsTableService":"True","RestaurantsTakeOut":"True","OutdoorSeating":"False","HappyHour":"True","RestaurantsAttire":"'casual'","GoodForKids":"True","GoodForDancing":"False","BusinessAcceptsCreditCards":"True","Smoking":"u'no'","Alcohol":"u'full_bar'","RestaurantsReservations":"True","GoodForMeal":"{'dessert': None, 'latenight': None, 'lunch': None, 'dinner': True, 'brunch': None, 'breakfast': None}","Caters":"True","Music":"{'dj': False, 'background_music': False, 'no_music': False, 'jukebox': False, 'live': False, 'video': False, 'karaoke': None}","BusinessAcceptsBitcoin":"False","BusinessParking":"{'garage': True, 'street': True, 'validated': False, 'lot': False, 'valet': False}","BestNights":"{'monday': False, 'tuesday': False, 'friday': True, 'wednesday': False, 'thursday': True, 'sunday': True, 'saturday': False}","DogsAllowed":"False","BikeParking":"True","RestaurantsGoodForGroups":"True","RestaurantsDelivery":"True","WheelchairAccessible":"True"},"categories":"Ramen, Restaurants, Tapas\/Small Plates, Nightlife, Japanese, Bars, Cocktail Bars","hours":{"Monday":"0:0-0:0","Tuesday":"15:0-1:0","Thursday":"15:0-0:0","Friday":"15:0-2:0","Saturday":"11:0-2:0","Sunday":"11:0-0:0"}}
{"business_id":"7mBsC_jYauYOCZCLecZHIg","name":"Four Seasons Golf Center","address":"1208 Swamp Rd","city":"Fountainville","state":"PA","postal_code":"18923","latitude":40.3445821,"longitude":-75.1579355,"stars":2.5,"review_count":7,"is_open":1,"attributes":{"BikeParking":"True","GoodForKids":"True","RestaurantsPriceRange2":"1","BusinessAcceptsCreditCards":"True","BusinessParking":"{'garage': False, 'street': False, 'validated': False, 'lot': False, 'valet': False}"},"categories":"Shopping, Golf, Active Life, Sporting Goods, Golf Equipment, Mini Golf","hours":{"Monday":"8:0-22:0","Tuesday":"8:0-22:0","Wednesday":"8:0-22:0","Thursday":"8:0-22:0","Friday":"8:0-22:0","Saturday":"8:0-22:0","Sunday":"8:0-21:0"}}
{"business_id":"Xeqjpaa4FDt2gGSXdFUixQ","name":"Purple Lotus Massage Therapy","address":"11 Rowland Crescent, Unit 20","city":"St. Albert","state":"AB","postal_code":"T8N 4B2","latitude":53.6174965,"longitude":-113.6453961,"stars":4.5,"review_count":14,"is_open":0,"attributes":{"BusinessParking":"{'garage': False, 'street': True, 'validated': False, 'lot': True, 'valet': False}","RestaurantsPriceRange2":"2","ByAppointmentOnly":"True","BikeParking":"False"},"categories":"Massage, Cosmetics & Beauty Supply, Health & Medical, Massage Therapy, Hair Removal, Shopping, Waxing, Beauty & Spas, Nail Salons, Skin Care","hours":null}
{"business_id":"ZrkdPWQicriMCcDVDX0dCA","name":"Retro Fitness","address":"105 Franklin Mills Blvd","city":"Philadelphia","state":"PA","postal_code":"19154","latitude":40.091209,"longitude":-74.968006,"stars":3.5,"review_count":15,"is_open":1,"attributes":{"GoodForKids":"False","ByAppointmentOnly":"False","BusinessAcceptsCreditCards":"True","BikeParking":"True"},"categories":"Fitness & Instruction, Active Life, Gyms","hours":{"Monday":"5:0-23:0","Tuesday":"5:0-23:0","Wednesday":"5:0-23:0","Thursday":"5:0-23:0","Friday":"5:0-23:0","Saturday":"7:0-18:0","Sunday":"7:0-18:0"}}
{"business_id":"jULv8yx-pqzuVDVJLV438w","name":"Truly Nolen Pest & Termite Control","address":"3636 E Speedway Blvd","city":"Tucson","state":"AZ","postal_code":"85716","latitude":32.2357505811,"longitude":-110.9152491435,"stars":4.5,"review_count":30,"is_open":1,"attributes":{"BusinessAcceptsCreditCards":"True","ByAppointmentOnly":"True"},"categories":"Local Services, Pest Control, Home Services","hours":{"Monday":"0:0-0:0","Tuesday":"4:0-20:0","Wednesday":"4:0-20:0","Thursday":"4:0-20:0","Friday":"4:0-20:0","Saturday":"5:0-18:0","Sunday":"5:0-18:0"}}
{"business_id":"QEF6usO04AtvrazPhLX_sw","name":"Chinese Express","address":"718 S Florissant Rd","city":"Ferguson","state":"MO","postal_code":"63135","latitude":38.7353075,"longitude":-90.301102,"stars":4.0,"review_count":15,"is_open":1,"attributes":{"BusinessAcceptsCreditCards":"True","BikeParking":"False","GoodForKids":"True","RestaurantsAttire":"u'casual'","Caters":"False","RestaurantsGoodForGroups":"True","OutdoorSeating":"False","RestaurantsPriceRange2":"1","NoiseLevel":"'quiet'","Alcohol":"'none'","RestaurantsTakeOut":"True","RestaurantsReservations":"False","WiFi":"'no'","Ambience":"{u'divey': None, u'hipster': None, u'casual': True, u'touristy': None, u'trendy': False, u'intimate': None, u'romantic': False, u'classy': False, u'upscale': False}","BusinessParking":"{'garage': None, 'street': None, 'validated': None, 'lot': True, 'valet': False}","HasTV":"True","RestaurantsDelivery":"True","GoodForMeal":"{u'breakfast': None, u'brunch': None, u'lunch': True, u'dinner': True, u'latenight': None, u'dessert': False}"},"categories":"Chinese, Restaurants","hours":null}
{"business_id":"TttFjRQ-8Iz8by4hsD7iOQ","name":"Angelina's","address":"743 S 8th St","city":"Philadelphia","state":"PA","postal_code":"19147","latitude":39.940221217,"longitude":-75.1557966694,"stars":4.5,"review_count":49,"is_open":1,"attributes":{"Alcohol":"u'none'","WiFi":"u'free'","RestaurantsAttire":"u'casual'","RestaurantsReservations":"True","RestaurantsTableService":"True","GoodForKids":"False","RestaurantsPriceRange2":"3","GoodForMeal":"{'dessert': False, 'latenight': False, 'lunch': False, 'dinner': False, 'brunch': False, 'breakfast': False}","Ambience":"{'touristy': False, 'hipster': False, 'romantic': False, 'divey': False, 'intimate': False, 'trendy': False, 'upscale': False, 'classy': True, 'casual': False}","OutdoorSeating":"False","BusinessAcceptsCreditCards":"False","NoiseLevel":"u'average'","HasTV":"True","BusinessParking":"{'garage': False, 'street': False, 'validated': False, 'lot': False, 'valet': False}","RestaurantsDelivery":"True","RestaurantsGoodForGroups":"True"},"categories":"Restaurants, Italian","hours":{"Wednesday":"17:0-22:0","Thursday":"17:0-22:0","Friday":"17:0-22:0","Saturday":"17:0-22:0","Sunday":"16:0-21:0"}}
{"business_id":"E1GZn56ZwLmasrTxvo08GA","name":"Salon Elle","address":"525 Huey P Long Ave","city":"Gretna","state":"LA","postal_code":"70053","latitude":29.9146535,"longitude":-90.0632725,"stars":5.0,"review_count":7,"is_open":1,"attributes":{"WheelchairAccessible":"False","BusinessParking":"{'garage': False, 'street': False, 'validated': False, 'lot': False, 'valet': False}","ByAppointmentOnly":"False","BusinessAcceptsCreditCards":"True","RestaurantsPriceRange2":"2"},"categories":"Hair Salons, Beauty & Spas","hours":{"Tuesday":"9:0-19:0","Wednesday":"9:0-19:0","Thursday":"9:0-19:0","Friday":"9:0-19:0","Saturday":"9:0-19:0"}}
{"business_id":"Hn5wSB6hKqKs-_fzAIocJA","name":"Cork Wine Bar","address":"423 S Florissant Rd","city":"Ferguson","state":"MO","postal_code":"63135","latitude":38.7384161,"longitude":-90.3028985,"stars":4.0,"review_count":45,"is_open":0,"attributes":{"OutdoorSeating":"True","Alcohol":"u'full_bar'","BusinessAcceptsCreditCards":"True","HasTV":"True","NoiseLevel":"u'average'","RestaurantsGoodForGroups":"True","BusinessParking":"{'garage': False, 'street': None, 'validated': False, 'lot': True, 'valet': False}","ByAppointmentOnly":"False","RestaurantsPriceRange2":"2","BikeParking":"True","Music":"{'dj': False, 'background_music': False, 'no_music': False, 'jukebox': False, 'live': True, 'video': False, 'karaoke': False}","RestaurantsReservations":"False","WiFi":"u'free'","HappyHour":"True","Ambience":"{'touristy': False, 'hipster': None, 'romantic': None, 'divey': False, 'intimate': True, 'trendy': None, 'upscale': False, 'classy': None, 'casual': True}","BestNights":"{'monday': False, 'tuesday': True, 'friday': True, 'wednesday': False, 'thursday': False, 'sunday': False, 'saturday': True}"},"categories":"Bars, Wine Bars, Nightlife","hours":{"Tuesday":"16:0-22:0","Wednesday":"16:0-22:0","Thursday":"16:0-22:0","Friday":"16:0-23:0","Saturday":"16:0-23:0","Sunday":"10:0-14:0"}}
{"business_id":"VqacCoDaQylgZcyRiyvvRg","name":"Quesa-D-Ya's","address":"4337 Butler Hill Rd, Ste K","city":"Saint Louis","state":"MO","postal_code":"63128","latitude":38.485721,"longitude":-90.3581591,"stars":3.5,"review_count":7,"is_open":0,"attributes":{"BusinessAcceptsCreditCards":"True","HasTV":"True","BusinessParking":"{'garage': False, 'street': False, 'validated': False, 'lot': False, 'valet': False}","RestaurantsTakeOut":"True","RestaurantsPriceRange2":"2"},"categories":"Restaurants, Tex-Mex, Mexican","hours":null}
{"business_id":"qjbnku0rUULzjeaHtH9GCw","name":"Moorestown Chiropractic and Wellness","address":"128 Bortons Landing Rd","city":"Moorestown","state":"NJ","postal_code":"08057","latitude":39.9764804,"longitude":-74.9190961,"stars":5.0,"review_count":9,"is_open":1,"attributes":{"ByAppointmentOnly":"True"},"categories":"Health & Medical, Chiropractors","hours":null}
{"business_id":"evZKyAZ4UePe8RLPzBDcbg","name":"Suds and Swagger","address":"616 S 6 th St","city":"Philadelphia","state":"PA","postal_code":"19147","latitude":39.9415109,"longitude":-75.1525395,"stars":4.5,"review_count":12,"is_open":0,"attributes":null,"categories":"Pet Services, Pet Groomers, Pets","hours":{"Tuesday":"8:30-15:30","Wednesday":"8:30-15:30","Thursday":"12:0-19:0","Friday":"8:30-15:30","Saturday":"8:30-15:30"}}
{"business_id":"rX4pmubWdgrKEG794iwbWA","name":"Northwest Allied Physicians","address":"4001 E Sunrise Dr","city":"Tucson","state":"AZ","postal_code":"85718","latitude":32.3098481,"longitude":-110.9079133,"stars":2.0,"review_count":8,"is_open":1,"attributes":{"ByAppointmentOnly":"True","BusinessAcceptsCreditCards":"True","AcceptsInsurance":"True"},"categories":"Health & Medical, Medical Centers","hours":{"Monday":"8:0-16:0","Tuesday":"8:0-16:0","Wednesday":"8:0-16:0","Thursday":"8:0-16:0","Saturday":"8:0-12:0"}}
{"business_id":"opiv3hcNNsRDiLXsUbNw-A","name":"Old Country Buffet","address":"910 E Woodland Ave","city":"Springfield","state":"PA","postal_code":"19064","latitude":39.914661,"longitude":-75.333685,"stars":3.0,"review_count":5,"is_open":0,"attributes":{"RestaurantsTakeOut":"True","RestaurantsGoodForGroups":"True","NoiseLevel":"u'average'","RestaurantsPriceRange2":"1"},"categories":"Restaurants, Buffets","hours":null}
{"business_id":"NQn_dGaMlvbQGwgAA6t85w","name":"The Glen At Shawmont Station","address":"300 Autumn River Run","city":"Philadelphia","state":"PA","postal_code":"19128","latitude":40.0446405,"longitude":-75.2467667,"stars":4.0,"review_count":9,"is_open":1,"attributes":{"BusinessAcceptsCreditCards":"False"},"categories":"Home Services, Real Estate, Apartments","hours":{"Monday":"9:0-17:0","Tuesday":"9:0-17:0","Wednesday":"9:0-17:0","Thursday":"9:0-17:0","Friday":"9:0-17:0","Saturday":"10:0-16:0","Sunday":"11:0-16:0"}}
{"business_id":"b9AWdZKry6pAHcMyErr2dw","name":"Twice As Nice","address":"250 Haverford Ave","city":"Narberth","state":"PA","postal_code":"19072","latitude":40.00558,"longitude":-75.2602795,"stars":3.0,"review_count":17,"is_open":1,"attributes":{"RestaurantsPriceRange2":"3","BusinessAcceptsCreditCards":"True","BusinessParking":"{'garage': False, 'street': True, 'validated': False, 'lot': False, 'valet': False}","DogsAllowed":"True","ByAppointmentOnly":"False","BusinessAcceptsBitcoin":"False","BikeParking":"True","WheelchairAccessible":"True"},"categories":"Shopping, Baby Gear & Furniture, Thrift Stores, Children's Clothing, Fashion, Used, Vintage & Consignment","hours":{"Thursday":"11:0-16:0","Friday":"11:0-16:0","Saturday":"10:0-16:0","Sunday":"12:0-15:0"}}
{"business_id":"ehUE-FW5ddQW8phkyDyWEQ","name":"Karma Records","address":"3532 W 86th St","city":"Indianapolis","state":"IN","postal_code":"46268","latitude":39.912266,"longitude":-86.221324,"stars":3.0,"review_count":5,"is_open":1,"attributes":{"BusinessAcceptsCreditCards":"True"},"categories":"Music & DVDs, Shopping, Books, Mags, Music & Video, Videos & Video Game Rental","hours":null}
{"business_id":"vROChamOxcbYNfaBXs-TjA","name":"Franklin Window and Door","address":"200 S Rangeline Rd, Ste 117","city":"Carmel","state":"IN","postal_code":"46032","latitude":39.9767889,"longitude":-86.1275496,"stars":4.0,"review_count":5,"is_open":1,"attributes":{"ByAppointmentOnly":"False","DogsAllowed":"True","WheelchairAccessible":"True","BusinessParking":"{'garage': False, 'street': False, 'validated': False, 'lot': True, 'valet': False}","BusinessAcceptsCreditCards":"True","BusinessAcceptsBitcoin":"False","BikeParking":"True"},"categories":"Hardware Stores, Shopping, Home & Garden, Door Sales\/Installation, Home Services, Windows Installation","hours":{"Monday":"0:0-0:0","Tuesday":"9:0-17:0","Wednesday":"9:0-17:0","Thursday":"9:0-17:0","Friday":"9:0-17:0"}}
{"business_id":"wl69QZhv9GvYycW97DW05g","name":"GrowHealthy - Brandon","address":"1525 E Brandon Blvd","city":"Brandon","state":"FL","postal_code":"33511","latitude":27.9370999875,"longitude":-82.2624700516,"stars":3.5,"review_count":32,"is_open":1,"attributes":{"WiFi":"u'free'","BusinessAcceptsCreditCards":"False","WheelchairAccessible":"True","AcceptsInsurance":"False","BusinessParking":"{u'valet': False, u'garage': False, u'street': False, u'lot': True, u'validated': False}"},"categories":"Pharmacy, Cannabis Clinics, Health & Medical, Shopping, Cannabis Dispensaries","hours":{"Monday":"0:0-0:0","Tuesday":"9:0-20:30","Wednesday":"9:0-20:30","Thursday":"9:0-20:30","Friday":"9:0-16:0","Saturday":"11:0-20:30","Sunday":"11:0-20:0"}}
{"business_id":"7mOTgpIGoZ-6cF6hHhMvZw","name":"Fred Meyer","address":"5230 W Franklin Rd","city":"Boise","state":"ID","postal_code":"83705","latitude":43.6027565002,"longitude":-116.2439041138,"stars":4.0,"review_count":8,"is_open":1,"attributes":{"BusinessParking":"{'garage': False, 'street': False, 'validated': False, 'lot': False, 'valet': False}","RestaurantsPriceRange2":"2","BikeParking":"True","BusinessAcceptsCreditCards":"True","RestaurantsTakeOut":"None"},"categories":"Grocery, Fashion, Drugstores, Food, Shopping, Department Stores","hours":{"Monday":"9:0-21:0","Tuesday":"9:0-21:0","Wednesday":"9:0-21:0","Thursday":"9:0-21:0","Friday":"9:0-21:0","Saturday":"9:0-19:0","Sunday":"10:0-18:0"}}
{"business_id":"rT9Eg9GdrvBcxuG9TH_RQA","name":"MEC South Edmonton Common","address":"1624 99 Street NW","city":"Edmonton","state":"AB","postal_code":"T6N 1N5","latitude":53.4457339239,"longitude":-113.4873230879,"stars":4.5,"review_count":7,"is_open":1,"attributes":{"BikeParking":"True","RestaurantsPriceRange2":"3","BusinessParking":"{'garage': False, 'street': False, 'validated': False, 'lot': True, 'valet': False}"},"categories":"Sporting Goods, Fashion, Outdoor Gear, Bikes, Sports Wear, Shopping","hours":{"Monday":"0:0-0:0","Tuesday":"10:0-17:0","Wednesday":"9:0-21:0","Thursday":"9:0-21:0","Friday":"11:0-18:0","Saturday":"12:0-19:0","Sunday":"11:0-17:0"}}
{"business_id":"w8C_pRQvdIXQ5VRWlW2M3w","name":"The Human Bean","address":"3380 Kietzke Ln","city":"Reno","state":"NV","postal_code":"89502","latitude":39.4921888,"longitude":-119.7886223687,"stars":4.5,"review_count":37,"is_open":1,"attributes":{"WheelchairAccessible":"True","WiFi":"u'free'","BusinessAcceptsBitcoin":"False","DriveThru":"True","OutdoorSeating":"True","DogsAllowed":"True","BikeParking":"True","BusinessAcceptsCreditCards":"True","BusinessParking":"{'garage': False, 'street': False, 'validated': False, 'lot': True, 'valet': False}","RestaurantsDelivery":"True","RestaurantsTakeOut":"None"},"categories":"Juice Bars & Smoothies, Bagels, Coffee & Tea, Food","hours":{"Monday":"0:0-0:0","Tuesday":"5:0-19:0","Wednesday":"5:0-19:0","Thursday":"5:0-17:0","Friday":"7:0-19:0","Saturday":"5:0-19:0","Sunday":"5:0-19:0"}}
{"business_id":"niEm9LkcLOrvsDzjXD6WpQ","name":"New Orleans Hamburger & Seafood Co.","address":"2515 B Manhattan Blvd","city":"Harvey","state":"LA","postal_code":"70058","latitude":29.8768457,"longitude":-90.0482728,"stars":3.5,"review_count":113,"is_open":1,"attributes":{"GoodForKids":"True","BusinessAcceptsCreditCards":"True","RestaurantsAttire":"u'casual'","RestaurantsPriceRange2":"2","RestaurantsReservations":"False","Alcohol":"u'full_bar'","HasTV":"True","RestaurantsTakeOut":"True","BusinessParking":"{'garage': False, 'street': False, 'validated': False, 'lot': True, 'valet': False}","Ambience":"{'romantic': False, 'intimate': False, 'touristy': False, 'hipster': False, 'divey': False, 'classy': False, 'trendy': False, 'upscale': False, 'casual': True}","WiFi":"u'free'","NoiseLevel":"u'average'","RestaurantsGoodForGroups":"True","OutdoorSeating":"True","BikeParking":"True","Caters":"False","DriveThru":"True","GoodForMeal":"{'dessert': False, 'latenight': False, 'lunch': True, 'dinner': True, 'brunch': False, 'breakfast': False}","RestaurantsDelivery":"True"},"categories":"Fish & Chips, Burgers, Seafood, Restaurants","hours":{"Monday":"10:30-21:0","Tuesday":"10:30-21:0","Wednesday":"10:30-21:0","Thursday":"10:30-21:0","Friday":"10:30-21:0","Saturday":"10:30-21:0","Sunday":"10:30-21:0"}}
{"business_id":"hw923zJjFiIIdmjqu9VWkA","name":"Auburn Hill Apartments","address":"840 Auburn Hill Dr","city":"Indianapolis","state":"IN","postal_code":"46224","latitude":39.7777515292,"longitude":-86.2616817108,"stars":2.0,"review_count":7,"is_open":1,"attributes":{"BusinessAcceptsCreditCards":"True","WheelchairAccessible":"True","ByAppointmentOnly":"False"},"categories":"Apartments, Home Services, Real Estate","hours":{"Monday":"9:0-17:30","Tuesday":"9:0-17:30","Wednesday":"9:0-17:30","Thursday":"9:0-17:30","Friday":"9:0-17:30","Saturday":"10:0-17:0"}}
{"business_id":"pCmaISSyKum22MOtPOxL-w","name":"Philadelphia Phillies","address":"Citizens Bank Park","city":"Philadelphia","state":"PA","postal_code":"19176","latitude":39.9057900395,"longitude":-75.1663008124,"stars":4.5,"review_count":94,"is_open":1,"attributes":{"GoodForKids":"True","DogsAllowed":"False"},"categories":"Arts & Entertainment, Professional Sports Teams","hours":null}
{"business_id":"EbrK0e_Mv-B4bM_xL1BgkQ","name":"Style America","address":"West Edmonton Mall, 2902 - 8882 170th St NW","city":"Edmonton","state":"AB","postal_code":"T5T 3J7","latitude":53.5235519,"longitude":-113.6157074,"stars":1.0,"review_count":7,"is_open":1,"attributes":{"RestaurantsPriceRange2":"3","ByAppointmentOnly":"False"},"categories":"Shopping, Fashion, Women's Clothing, Formal Wear, Bridal","hours":{"Monday":"10:0-21:0","Tuesday":"10:0-21:0","Wednesday":"10:0-21:0","Thursday":"10:0-21:0","Friday":"10:0-21:0","Saturday":"10:0-21:0","Sunday":"11:0-18:0"}}
{"business_id":"3MlRzdQOWtqoIPOJCD4Yig","name":"Superior Transmissions","address":"2601 E Henry Ave, Ste B4","city":"Tampa","state":"FL","postal_code":"33610","latitude":27.9992077,"longitude":-82.4304516,"stars":3.5,"review_count":5,"is_open":1,"attributes":{"BusinessAcceptsCreditCards":"True"},"categories":"Transmission Repair, Auto Repair, Automotive","hours":{"Monday":"8:0-17:0","Tuesday":"8:0-17:0","Wednesday":"8:0-17:0","Thursday":"8:0-17:0","Friday":"8:0-17:0"}}
{"business_id":"aurl4I40YVQfQ8loOdgKCg","name":"Crown Fried Chicken","address":"933 N Broad St","city":"Philadelphia","state":"PA","postal_code":"19123","latitude":39.971145,"longitude":-75.15902,"stars":3.5,"review_count":11,"is_open":1,"attributes":{"BusinessAcceptsCreditCards":"True","Alcohol":"u'none'","RestaurantsPriceRange2":"1","RestaurantsReservations":"False","NoiseLevel":"u'average'","RestaurantsTakeOut":"True","BikeParking":"False","RestaurantsAttire":"u'casual'","GoodForKids":"True","Ambience":"{'touristy': False, 'hipster': False, 'romantic': False, 'divey': False, 'intimate': False, 'trendy': False, 'upscale': False, 'classy': True, 'casual': False}","OutdoorSeating":"False","RestaurantsGoodForGroups":"True","HasTV":"True","RestaurantsDelivery":"True"},"categories":"Chicken Wings, Restaurants, Fast Food","hours":{"Monday":"10:0-3:0","Tuesday":"10:0-3:0","Wednesday":"10:0-3:0","Thursday":"10:0-3:0","Friday":"10:0-3:0","Saturday":"10:0-4:0","Sunday":"10:0-4:0"}}
{"business_id":"V4THIJk9uhoxL7f06fK5VA","name":"Roundabout Catering","address":"631 Dunn Cir","city":"Sparks","state":"NV","postal_code":"89431","latitude":39.528286,"longitude":-119.734864,"stars":5.0,"review_count":38,"is_open":1,"attributes":{"BusinessAcceptsCreditCards":"True","RestaurantsTakeOut":"False","Caters":"True"},"categories":"Caterers, Party Equipment Rentals, Food, Venues & Event Spaces, Event Planning & Services, Restaurants, Food Delivery Services","hours":{"Monday":"8:0-17:0","Tuesday":"8:0-17:0","Wednesday":"8:0-17:0","Thursday":"8:0-17:0","Friday":"8:0-17:0"}}
{"business_id":"ifofBiQeb6DI0-u0KEQybg","name":"HAPPYJAXX","address":"801 Magazine St","city":"New Orleans","state":"LA","postal_code":"70130","latitude":29.945239,"longitude":-90.069555,"stars":4.0,"review_count":24,"is_open":1,"attributes":{"GoodForMeal":"{'dessert': False, 'latenight': False, 'lunch': False, 'dinner': False, 'brunch': False, 'breakfast': False}","RestaurantsReservations":"False","RestaurantsPriceRange2":"2","Ambience":"{'touristy': None, 'hipster': None, 'romantic': None, 'divey': None, 'intimate': None, 'trendy': True, 'upscale': None, 'classy': None, 'casual': None}","BusinessParking":"{'garage': False, 'street': False, 'validated': False, 'lot': False, 'valet': False}","BusinessAcceptsCreditCards":"True","RestaurantsDelivery":"False"},"categories":"Salad, Restaurants, Breakfast & Brunch, Food","hours":{"Monday":"8:30-21:45","Tuesday":"8:30-22:0","Wednesday":"8:30-22:0","Thursday":"8:30-22:0","Friday":"8:30-23:0","Saturday":"8:30-23:0","Sunday":"8:30-22:0"}}
{"business_id":"RXvxF6uZLUNiblUgV0DYGw","name":"Citipointe Church","address":"7533 Lords Chapel Dr","city":"Nashville","state":"TN","postal_code":"37211","latitude":36.0266418457,"longitude":-86.7101076087,"stars":4.0,"review_count":6,"is_open":1,"attributes":null,"categories":"Religious Organizations, Churches","hours":{"Monday":"9:0-16:0","Tuesday":"9:0-16:0","Wednesday":"9:0-16:0","Thursday":"9:0-16:0","Sunday":"10:0-12:0"}}
{"business_id":"RaudZPPMftkimn3jgw5D2g","name":"Bank of America Financial Center","address":"451 W Main St","city":"Hendersonville","state":"TN","postal_code":"37075","latitude":36.301861349,"longitude":-86.631506292,"stars":1.5,"review_count":8,"is_open":1,"attributes":null,"categories":"Financial Services, Real Estate, Home Services, Mortgage Brokers, Banks & Credit Unions","hours":{"Monday":"0:0-0:0","Tuesday":"9:0-17:0","Wednesday":"9:0-17:0","Thursday":"9:0-17:0","Friday":"9:0-17:0","Saturday":"9:0-14:0","Sunday":"9:0-14:0"}}
{"business_id":"mGpLYGly9TmJsWiELfHXYg","name":"Raz'z Restaurant","address":"408 Sam Ridley Pkwy","city":"Smyrna","state":"TN","postal_code":"37167","latitude":35.986072,"longitude":-86.549655,"stars":3.5,"review_count":44,"is_open":0,"attributes":{"RestaurantsDelivery":"False","RestaurantsPriceRange2":"2","RestaurantsAttire":"u'casual'","Alcohol":"u'full_bar'","RestaurantsGoodForGroups":"True","OutdoorSeating":"True","BusinessParking":"{'garage': False, 'street': False, 'validated': False, 'lot': True, 'valet': False}","RestaurantsTakeOut":"True","BusinessAcceptsCreditCards":"True","BikeParking":"True","RestaurantsReservations":"True","Ambience":"{'romantic': False, 'intimate': False, 'touristy': False, 'hipster': False, 'divey': False, 'classy': False, 'trendy': False, 'upscale': False, 'casual': True}","Caters":"True","HasTV":"False","GoodForKids":"True","NoiseLevel":"u'average'","WiFi":"u'free'"},"categories":"Cajun\/Creole, Restaurants, American (New)","hours":{"Monday":"11:0-22:0","Tuesday":"11:0-22:0","Wednesday":"11:0-22:0","Thursday":"11:0-22:0","Friday":"11:0-23:0","Saturday":"11:0-23:0","Sunday":"11:0-22:0"}}
{"business_id":"_cndcbuaqSRW5f-MeZasNw","name":"Toyama Japanese Steak House","address":"15532 Old Hickory Blvd","city":"Nashville","state":"TN","postal_code":"37211","latitude":36.040788,"longitude":-86.7402801,"stars":3.0,"review_count":142,"is_open":1,"attributes":{"HasTV":"True","RestaurantsTakeOut":"True","RestaurantsPriceRange2":"2","RestaurantsReservations":"True","BusinessParking":"{'garage': False, 'street': False, 'validated': False, 'lot': True, 'valet': False}","OutdoorSeating":"False","Ambience":"{'romantic': False, 'intimate': False, 'touristy': False, 'hipster': False, 'divey': False, 'classy': False, 'trendy': False, 'upscale': False, 'casual': True}","NoiseLevel":"u'average'","WiFi":"u'no'","BusinessAcceptsCreditCards":"True","Alcohol":"u'full_bar'","Caters":"False","RestaurantsAttire":"u'casual'","RestaurantsGoodForGroups":"True","GoodForKids":"True","BikeParking":"False","GoodForMeal":"{'dessert': False, 'latenight': False, 'lunch': None, 'dinner': True, 'brunch': False, 'breakfast': False}","DogsAllowed":"False","RestaurantsTableService":"True","BusinessAcceptsBitcoin":"False","RestaurantsDelivery":"False"},"categories":"Steakhouses, Chinese, Japanese, Restaurants, Korean, Sushi Bars","hours":{"Monday":"11:0-20:30","Tuesday":"11:0-20:30","Wednesday":"11:0-20:30","Thursday":"11:0-20:30","Friday":"11:0-21:30","Saturday":"11:0-21:30","Sunday":"12:0-20:30"}}
{"business_id":"iapJoe3OzxeZqOGUJxnG3w","name":"Fresh Healthy Cafe","address":"4005 Clover Bar Road","city":"Sherwood Park","state":"AB","postal_code":"T8H 0M4","latitude":53.5568884242,"longitude":-113.2741134955,"stars":3.5,"review_count":8,"is_open":1,"attributes":{"RestaurantsGoodForGroups":"True","GoodForKids":"True","RestaurantsTakeOut":"True","RestaurantsAttire":"u'casual'","NoiseLevel":"u'quiet'","Alcohol":"u'none'","RestaurantsPriceRange2":"2","RestaurantsDelivery":"False","HasTV":"True","OutdoorSeating":"True","Caters":"False","Ambience":"{'romantic': False, 'intimate': False, 'classy': False, 'hipster': False, 'divey': False, 'touristy': False, 'trendy': False, 'upscale': False, 'casual': False}","RestaurantsReservations":"False"},"categories":"Cafes, Juice Bars & Smoothies, Restaurants, Fast Food, Food","hours":{"Monday":"7:0-20:0","Tuesday":"7:0-20:0","Wednesday":"7:0-20:0","Thursday":"7:0-20:0","Friday":"7:0-20:0","Saturday":"10:0-16:0","Sunday":"10:0-16:0"}}
{"business_id":"HLzoOLTC48DPyG2gGD3g8w","name":"Pristine Dry Cleaner","address":"1400 Parkway Ave, Ste B6","city":"Ewing","state":"NJ","postal_code":"08628","latitude":40.2668877,"longitude":-74.8056572,"stars":4.0,"review_count":5,"is_open":1,"attributes":{"BusinessParking":"{'garage': False, 'street': False, 'validated': False, 'lot': False, 'valet': False}","RestaurantsPriceRange2":"1","BusinessAcceptsCreditCards":"True"},"categories":"Laundry Services, Sewing & Alterations, Local Services, Dry Cleaning","hours":{"Monday":"7:30-19:0","Tuesday":"7:30-19:0","Wednesday":"7:30-19:0","Thursday":"7:30-19:0","Friday":"7:30-19:0","Saturday":"8:0-16:0"}}
{"business_id":"dxNmbVCP-HGrDkPi4lqKDw","name":"Cherry Hill Motors-Mercedes-Benz Leasing","address":"1800 Marlton Pike W","city":"Cherry Hill","state":"NJ","postal_code":"08002","latitude":39.9190822,"longitude":-75.0314522,"stars":2.0,"review_count":7,"is_open":1,"attributes":null,"categories":"Automotive, Auto Repair, Car Dealers","hours":null}
{"business_id":"o9o6Doucymlma6aU7e22DA","name":"Levittown Lanes","address":"8815 New Falls Rd","city":"Levittown","state":"PA","postal_code":"19054","latitude":40.1750656571,"longitude":-74.8307601694,"stars":2.0,"review_count":15,"is_open":1,"attributes":{"GoodForKids":"True"},"categories":"Active Life, Bowling","hours":{"Monday":"12:0-22:0","Tuesday":"18:0-22:0","Wednesday":"18:0-22:0","Thursday":"18:0-22:0","Friday":"18:0-1:0","Saturday":"18:0-1:0","Sunday":"14:0-21:0"}}
{"business_id":"lo2VbA7Lwzu3i23pQpmzlw","name":"Starbucks","address":"1125 S Black Horse Pike, Space 575","city":"Gloucester Township","state":"NJ","postal_code":"08012","latitude":39.78403,"longitude":-75.05207,"stars":3.0,"review_count":15,"is_open":1,"attributes":{"BikeParking":"True","RestaurantsPriceRange2":"1","BusinessAcceptsCreditCards":"True","WiFi":"'free'","RestaurantsTakeOut":"True","BusinessParking":"{'garage': False, 'street': None, 'validated': False, 'lot': None, 'valet': False}","OutdoorSeating":"True"},"categories":"Food, Coffee & Tea","hours":{"Monday":"0:0-0:0","Tuesday":"10:30-20:0","Wednesday":"10:30-20:0","Thursday":"10:30-20:0","Friday":"9:30-20:0","Saturday":"9:30-20:0","Sunday":"12:0-18:0"}}
{"business_id":"WMI3BjDby0U-IF6NnN0SXA","name":"Cherry Hill Pizza","address":"110 Barclay Shopping Ctr","city":"Cherry Hill","state":"NJ","postal_code":"08034","latitude":39.9100678,"longitude":-74.9958273,"stars":3.0,"review_count":27,"is_open":1,"attributes":{"BusinessParking":"{'garage': False, 'street': False, 'validated': False, 'lot': False, 'valet': False}","GoodForKids":"True","WiFi":"'no'","RestaurantsReservations":"False","RestaurantsAttire":"'casual'","Ambience":"{'romantic': False, 'intimate': False, 'classy': False, 'hipster': False, 'divey': False, 'touristy': False, 'trendy': False, 'upscale': False, 'casual': False}","OutdoorSeating":"False","Alcohol":"'none'","BusinessAcceptsCreditCards":"True","RestaurantsPriceRange2":"1","HasTV":"True","Caters":"True","RestaurantsGoodForGroups":"True","BikeParking":"False","NoiseLevel":"u'average'","RestaurantsDelivery":"True","RestaurantsTakeOut":"True"},"categories":"Restaurants, Pizza","hours":{"Monday":"10:0-21:30","Tuesday":"10:0-21:30","Wednesday":"10:0-21:30","Thursday":"10:0-21:30","Friday":"10:0-21:30","Saturday":"10:0-21:30"}}
{"business_id":"TteUG63xhW8ORWNzQ1i_1w","name":"Gap","address":"615 Paseo Nuevo","city":"Santa Barbara","state":"CA","postal_code":"93101","latitude":34.419317,"longitude":-119.699999,"stars":2.0,"review_count":10,"is_open":1,"attributes":{"BusinessParking":"{'garage': False, 'street': False, 'validated': False, 'lot': False, 'valet': False}","BusinessAcceptsCreditCards":"True","BikeParking":"True","RestaurantsPriceRange2":"3"},"categories":"Sporting Goods, Women's Clothing, Shopping, Men's Clothing, Fashion, Sports Wear, Children's Clothing","hours":{"Monday":"0:0-0:0","Tuesday":"10:0-21:0","Wednesday":"10:0-21:0","Thursday":"10:0-21:0","Friday":"10:0-21:0","Saturday":"10:0-20:0","Sunday":"11:0-19:0"}}
{"business_id":"0oogOBGXNj39Wnl2SKoe0w","name":"Breakfast Club","address":"10150 US Highway 19","city":"Port Richey","state":"FL","postal_code":"34668","latitude":28.3052669,"longitude":-82.7011217,"stars":4.5,"review_count":80,"is_open":1,"attributes":{"BikeParking":"True","Caters":"False","Alcohol":"u'none'","BusinessAcceptsCreditCards":"True","OutdoorSeating":"False","HasTV":"True","RestaurantsTakeOut":"True","RestaurantsGoodForGroups":"True","RestaurantsAttire":"u'casual'","WiFi":"'free'","RestaurantsReservations":"True","RestaurantsPriceRange2":"1","GoodForKids":"True","Ambience":"{'touristy': False, 'hipster': False, 'romantic': False, 'divey': False, 'intimate': False, 'trendy': False, 'upscale': False, 'classy': False, 'casual': False}","RestaurantsTableService":"True","GoodForMeal":"{'dessert': False, 'latenight': False, 'lunch': True, 'dinner': False, 'brunch': True, 'breakfast': False}","NoiseLevel":"'average'","BusinessParking":"{'garage': False, 'street': False, 'validated': False, 'lot': True, 'valet': False}","RestaurantsDelivery":"True"},"categories":"Restaurants, Breakfast & Brunch, Coffee & Tea, Food","hours":{"Monday":"7:0-15:0","Tuesday":"7:0-15:0","Wednesday":"7:0-15:0","Thursday":"7:0-15:0","Friday":"7:0-15:0","Saturday":"7:0-15:0","Sunday":"7:0-14:0"}}
{"business_id":"u-QBVccU0cRK1pehKL4n0g","name":"Odessa Family Restaurant","address":"8741 Gunn Hwy","city":"Odessa","state":"FL","postal_code":"33556","latitude":28.0920633,"longitude":-82.5785573,"stars":2.5,"review_count":17,"is_open":0,"attributes":{"OutdoorSeating":"False","RestaurantsAttire":"u'casual'","RestaurantsPriceRange2":"1","RestaurantsReservations":"False","RestaurantsDelivery":"False","HasTV":"True","NoiseLevel":"u'average'","WiFi":"u'no'","BusinessAcceptsCreditCards":"False","BusinessParking":"{'garage': False, 'street': False, 'validated': False, 'lot': True, 'valet': False}","Ambience":"{'romantic': False, 'intimate': False, 'touristy': False, 'hipster': False, 'divey': False, 'classy': False, 'trendy': False, 'upscale': False, 'casual': False}","Alcohol":"u'none'","GoodForKids":"False","RestaurantsTakeOut":"True","RestaurantsGoodForGroups":"False"},"categories":"Restaurants, American (New)","hours":null}
{"business_id":"902y4z16-TKyS9UcThCGYA","name":"MRCKA's Dojo Pizza","address":"4601 Morganford Rd","city":"Saint Louis","state":"MO","postal_code":"63116","latitude":38.584834,"longitude":-90.266358,"stars":4.0,"review_count":10,"is_open":0,"attributes":{"DogsAllowed":"False","RestaurantsTakeOut":"True","RestaurantsTableService":"True","BusinessAcceptsBitcoin":"False","WheelchairAccessible":"True","RestaurantsPriceRange2":"2","OutdoorSeating":"False","WiFi":"u'no'","Caters":"False","BusinessAcceptsCreditCards":"True","RestaurantsReservations":"True","RestaurantsDelivery":"True","GoodForKids":"True","Alcohol":"u'none'","GoodForMeal":"{'dessert': False, 'latenight': False, 'lunch': False, 'dinner': False, 'brunch': False, 'breakfast': False}","BusinessParking":"{'garage': False, 'street': True, 'validated': False, 'lot': True, 'valet': False}","RestaurantsGoodForGroups":"True","BikeParking":"True","RestaurantsAttire":"'casual'","HasTV":"False","NoiseLevel":"u'average'","Ambience":"{'romantic': False, 'intimate': False, 'classy': False, 'hipster': True, 'divey': False, 'touristy': False, 'trendy': False, 'upscale': False, 'casual': False}"},"categories":"Italian, Restaurants, Pizza","hours":{"Tuesday":"16:0-20:30","Wednesday":"16:0-20:30","Thursday":"16:0-20:30","Friday":"16:0-21:0","Saturday":"16:0-21:0","Sunday":"16:0-20:30"}}
{"business_id":"jRyuScTMHEyPmlghZv8mnA","name":"Nashville West Shopping Center","address":"6716 Charlotte Pike","city":"Nashville","state":"TN","postal_code":"37209","latitude":36.1382175,"longitude":-86.8875329,"stars":4.5,"review_count":16,"is_open":1,"attributes":{"BikeParking":"True","BusinessParking":"{'garage': False, 'street': False, 'validated': False, 'lot': True, 'valet': False}","BusinessAcceptsCreditCards":"True","RestaurantsPriceRange2":"2"},"categories":"Shopping, Shopping Centers","hours":null}
{"business_id":"1WrtDs4KZPkOpYxchAwsuw","name":"O'Reilly Auto Parts","address":"5714 Charlotte Pike","city":"Nashville","state":"TN","postal_code":"37209","latitude":36.1502841,"longitude":-86.8608501,"stars":4.5,"review_count":6,"is_open":1,"attributes":null,"categories":"Auto Parts & Supplies, Automotive","hours":{"Monday":"7:0-21:0","Tuesday":"7:0-21:0","Wednesday":"7:0-21:0","Thursday":"7:0-21:0","Friday":"7:0-21:0","Saturday":"7:0-21:0","Sunday":"8:0-20:0"}}
{"business_id":"dcHPZZ6lgqm_VAcQjOUoMg","name":"Mr.Smoke","address":"11125 N Dale Mabry Hwy","city":"Tampa","state":"FL","postal_code":"33618","latitude":28.050101,"longitude":-82.5035516,"stars":2.5,"review_count":5,"is_open":1,"attributes":{"BusinessAcceptsCreditCards":"True","ByAppointmentOnly":"False"},"categories":"Tobacco Shops, Vape Shops, Head Shops, Shopping","hours":{"Monday":"9:0-0:0","Tuesday":"9:0-0:0","Wednesday":"9:0-0:0","Thursday":"9:0-0:0","Friday":"9:0-2:0","Saturday":"9:0-2:0","Sunday":"9:0-0:0"}}
{"business_id":"a8eIw8vCk-kIe__G6NUfaA","name":"China Wok","address":"10714 Countryway Blvd","city":"Tampa","state":"FL","postal_code":"33626","latitude":28.0571712,"longitude":-82.6237785,"stars":3.5,"review_count":17,"is_open":0,"attributes":{"RestaurantsReservations":"False","Alcohol":"u'none'","RestaurantsAttire":"u'casual'","RestaurantsTakeOut":"True","WiFi":"u'no'","Ambience":"{'romantic': False, 'intimate': False, 'touristy': False, 'hipster': False, 'divey': False, 'classy': False, 'trendy': False, 'upscale': False, 'casual': True}","RestaurantsPriceRange2":"1","BusinessAcceptsCreditCards":"True","RestaurantsGoodForGroups":"False","RestaurantsDelivery":"True","HasTV":"False","GoodForKids":"True","NoiseLevel":"u'quiet'","OutdoorSeating":"False","BikeParking":"False","BusinessParking":"{'garage': False, 'street': False, 'validated': False, 'lot': True, 'valet': False}"},"categories":"Chinese, Restaurants","hours":{"Monday":"11:0-22:0","Tuesday":"11:0-22:0","Wednesday":"11:0-22:0","Thursday":"11:0-22:0","Friday":"11:0-23:0","Saturday":"11:0-23:0","Sunday":"12:0-22:0"}}
{"business_id":"DZxerONFBdoY0zFYeeOc0Q","name":"St. Louis Kaplan Feldman Holocaust Museum","address":"12 Millstone Campus Dr","city":"Saint Louis","state":"MO","postal_code":"63146","latitude":38.6851071813,"longitude":-90.4069123754,"stars":5.0,"review_count":12,"is_open":1,"attributes":{"GoodForKids":"True"},"categories":"Museums, Arts & Entertainment","hours":{"Monday":"9:30-16:30","Tuesday":"9:30-16:30","Wednesday":"9:30-16:30","Thursday":"9:30-16:30","Friday":"9:30-16:30"}}
{"business_id":"Wz5Ky7sW5jyCkouCCsdP_w","name":"Out of the Closet - St. Petersburg","address":"3400 26th Ave S","city":"St. Petersburg","state":"FL","postal_code":"33711","latitude":27.7444017,"longitude":-82.6798601,"stars":4.0,"review_count":21,"is_open":1,"attributes":{"BusinessAcceptsBitcoin":"False","DogsAllowed":"False","WheelchairAccessible":"True","BikeParking":"False","RestaurantsPriceRange2":"1","BusinessParking":"{'garage': False, 'street': False, 'validated': False, 'lot': True, 'valet': False}","BusinessAcceptsCreditCards":"True","ByAppointmentOnly":"False"},"categories":"Walk-in Clinics, Medical Supplies, Pharmacy, Furniture Stores, Thrift Stores, Fashion, Drugstores, Used, Vintage & Consignment, Community Service\/Non-Profit, Diagnostic Services, Home & Garden, Laboratory Testing, Shopping, Health & Medical, Local Services, Medical Centers","hours":{"Monday":"10:0-19:0","Tuesday":"10:0-19:0","Wednesday":"10:0-19:0","Thursday":"10:0-19:0","Friday":"10:0-19:0","Saturday":"10:0-19:0","Sunday":"10:0-18:0"}}
{"business_id":"ITnfS2v029e56jZcJbr7aQ","name":"Beauty Depot","address":"2319 34th St S","city":"St. Petersburg","state":"FL","postal_code":"33711","latitude":27.7472732,"longitude":-82.6802401,"stars":3.5,"review_count":8,"is_open":1,"attributes":{"ByAppointmentOnly":"False","BusinessParking":"{'garage': False, 'street': False, 'validated': False, 'lot': True, 'valet': False}","BikeParking":"False","BusinessAcceptsCreditCards":"True","RestaurantsPriceRange2":"3","WiFi":"u'no'","WheelchairAccessible":"True"},"categories":"Beauty & Spas, Cosmetics & Beauty Supply, Shopping","hours":{"Monday":"8:30-19:30","Tuesday":"8:30-19:30","Wednesday":"8:30-19:30","Thursday":"8:30-19:30","Friday":"8:30-20:0","Saturday":"8:30-20:0","Sunday":"9:30-18:0"}}
{"business_id":"ctDyeSkk2VMEbRogxAtYFw","name":"Pennsylvania Oral Surgery & Dental Implant Centers","address":"207 N Broad St","city":"Philadelphia","state":"PA","postal_code":"19107","latitude":39.9565069284,"longitude":-75.1623848453,"stars":3.5,"review_count":9,"is_open":1,"attributes":{"ByAppointmentOnly":"True","BusinessAcceptsCreditCards":"True","AcceptsInsurance":"True"},"categories":"Oral Surgeons, Health & Medical, Cosmetic Dentists, Dentists, Orthodontists","hours":{"Monday":"8:0-16:0","Tuesday":"8:0-16:0","Wednesday":"8:0-16:0","Thursday":"8:0-16:0","Friday":"7:30-14:0"}}
{"business_id":"WhcwzJgwkgbmDpRWB0FsMA","name":"Artistic Eyewear","address":"127 N High St","city":"West Chester","state":"PA","postal_code":"19380","latitude":39.9611755,"longitude":-75.605589,"stars":5.0,"review_count":5,"is_open":1,"attributes":null,"categories":"Eyewear & Opticians, Shopping","hours":{"Tuesday":"10:0-18:0","Wednesday":"10:0-18:0","Thursday":"10:0-19:0","Friday":"10:0-18:0","Saturday":"10:0-18:0"}}
{"business_id":"iq0qAJ2Oc3myUTTMLseTXA","name":"Lorenzo & Sons Pizza","address":"27 North High St","city":"West Chester","state":"PA","postal_code":"19380","latitude":39.9604595,"longitude":-75.6049474,"stars":3.5,"review_count":71,"is_open":1,"attributes":{"RestaurantsAttire":"u'casual'","Alcohol":"u'none'","Caters":"False","NoiseLevel":"u'average'","BusinessParking":"{'garage': False, 'street': False, 'validated': False, 'lot': False, 'valet': False}","WiFi":"u'no'","GoodForKids":"True","RestaurantsReservations":"False","RestaurantsTakeOut":"True","HasTV":"True","RestaurantsGoodForGroups":"True","OutdoorSeating":"False","GoodForMeal":"{'dessert': False, 'latenight': False, 'lunch': True, 'dinner': False, 'brunch': False, 'breakfast': False}","RestaurantsPriceRange2":"1","RestaurantsDelivery":"True","BusinessAcceptsCreditCards":"True","RestaurantsTableService":"False","BikeParking":"False","Ambience":"{'touristy': False, 'hipster': False, 'romantic': False, 'divey': False, 'intimate': False, 'trendy': False, 'upscale': False, 'classy': False, 'casual': False}"},"categories":"Restaurants, Pizza","hours":{"Tuesday":"11:0-22:0","Wednesday":"11:0-22:0","Thursday":"11:0-22:0","Friday":"11:0-3:0","Saturday":"11:0-3:0","Sunday":"11:0-21:0"}}
{"business_id":"tXf6TpqHOLiwyMNbYAOOCQ","name":"The Little Lamb","address":"2475 N McMullen Booth Rd, Ste J","city":"Clearwater","state":"FL","postal_code":"33759","latitude":28.0114224507,"longitude":-82.7109746614,"stars":4.5,"review_count":307,"is_open":1,"attributes":{"WiFi":"u'free'","BusinessParking":"{'garage': False, 'street': False, 'validated': False, 'lot': True, 'valet': False}","HasTV":"True","RestaurantsTableService":"True","OutdoorSeating":"True","RestaurantsTakeOut":"True","WheelchairAccessible":"True","RestaurantsPriceRange2":"2","Alcohol":"u'beer_and_wine'","Corkage":"True","RestaurantsDelivery":"False","NoiseLevel":"u'quiet'","Caters":"False","GoodForKids":"False","BikeParking":"True","Ambience":"{'touristy': False, 'hipster': True, 'romantic': False, 'divey': False, 'intimate': None, 'trendy': True, 'upscale': False, 'classy': True, 'casual': True}","RestaurantsReservations":"True","RestaurantsAttire":"u'casual'","RestaurantsGoodForGroups":"True","BYOB":"False","GoodForMeal":"{u'breakfast': None, u'brunch': False, u'lunch': True, u'dinner': True, u'latenight': None, u'dessert': True}","BusinessAcceptsCreditCards":"True"},"categories":"Pubs, Gastropubs, Bars, Nightlife, American (New), Restaurants","hours":{"Monday":"0:0-0:0","Tuesday":"16:0-21:0","Wednesday":"16:0-21:0","Thursday":"16:0-21:0","Friday":"16:0-22:0","Saturday":"11:30-22:0"}}
{"business_id":"WQ832PDnsDshhbQFm83ISg","name":"Villagio Cinemas","address":"11778 N Dale Mabry Hwy","city":"Tampa","state":"FL","postal_code":"33618","latitude":28.055282,"longitude":-82.506247,"stars":3.0,"review_count":285,"is_open":1,"attributes":{"WiFi":"u'free'","BikeParking":"True","Alcohol":"u'full_bar'","NoiseLevel":"'quiet'","RestaurantsDelivery":"True","BusinessParking":"{'garage': False, 'street': False, 'validated': False, 'lot': True, 'valet': False}","RestaurantsPriceRange2":"2","BusinessAcceptsCreditCards":"True","Caters":"False","RestaurantsReservations":"True","GoodForKids":"True","RestaurantsAttire":"u'casual'","GoodForMeal":"{'dessert': False, 'latenight': False, 'lunch': False, 'dinner': True, 'brunch': False, 'breakfast': False}","RestaurantsTakeOut":"True","WheelchairAccessible":"True","HasTV":"True","Music":"{'dj': False, 'background_music': False, 'no_music': False, 'jukebox': False, 'live': False, 'video': False, 'karaoke': False}","RestaurantsTableService":"True","BestNights":"{'monday': False, 'tuesday': False, 'friday': False, 'wednesday': False, 'thursday': False, 'sunday': True, 'saturday': True}","Ambience":"{'touristy': False, 'hipster': False, 'romantic': False, 'divey': False, 'intimate': False, 'trendy': False, 'upscale': False, 'classy': True, 'casual': False}","BusinessAcceptsBitcoin":"False","RestaurantsGoodForGroups":"True","OutdoorSeating":"False"},"categories":"Cinema, Nightlife, Pizza, Italian, Arts & Entertainment, Burgers, Restaurants, Lounges, Bars","hours":{"Monday":"11:0-22:0","Tuesday":"11:0-22:0","Wednesday":"11:0-23:0","Thursday":"11:0-23:0","Friday":"11:0-23:0","Saturday":"11:0-23:0","Sunday":"11:0-23:0"}}
{"business_id":"LV61BcSaXlWsFR7_BJHJ9g","name":"Super 8 Nashville Airport","address":"720 Royal Pkwy","city":"Nashville","state":"TN","postal_code":"37214","latitude":36.1451283,"longitude":-86.66477,"stars":3.5,"review_count":12,"is_open":1,"attributes":{"BusinessAcceptsCreditCards":"True","WiFi":"u'free'","RestaurantsPriceRange2":"1"},"categories":"Travel Services, Airports, Event Planning & Services, Hotels, Hotels & Travel","hours":{"Monday":"0:0-0:0","Tuesday":"0:0-0:0","Wednesday":"0:0-0:0","Thursday":"0:0-0:0","Friday":"0:0-0:0","Saturday":"0:0-0:0","Sunday":"0:0-0:0"}}
{"business_id":"aJpDjaMVhWZRLdwZtqQjEg","name":"T.H.I.S. Place","address":"10382 105 Street","city":"Edmonton","state":"AB","postal_code":"T5J 1E6","latitude":53.5460723,"longitude":-113.5012494,"stars":4.5,"review_count":24,"is_open":0,"attributes":{"RestaurantsPriceRange2":"1","GoodForKids":"True","WiFi":"u'free'","BikeParking":"True","RestaurantsReservations":"True","RestaurantsTakeOut":"True","BusinessParking":"{'garage': False, 'street': True, 'validated': False, 'lot': False, 'valet': False}","Alcohol":"'beer_and_wine'","NoiseLevel":"u'quiet'","RestaurantsAttire":"u'casual'","Caters":"False","OutdoorSeating":"True","RestaurantsDelivery":"False","Ambience":"{'romantic': False, 'intimate': False, 'classy': False, 'hipster': False, 'divey': False, 'touristy': False, 'trendy': False, 'upscale': False, 'casual': False}","HasTV":"True","RestaurantsGoodForGroups":"True"},"categories":"Ice Cream & Frozen Yogurt, Vietnamese, Desserts, Food, Coffee & Tea, Restaurants","hours":{"Monday":"8:0-18:0","Tuesday":"8:0-18:0","Wednesday":"8:0-18:0","Thursday":"8:0-18:0","Friday":"8:0-18:0"}}
{"business_id":"rNcsE2O5FwQMNdabogX7Mg","name":"O'Reilly Auto Parts","address":"4650 Nolensville Rd","city":"Nashville","state":"TN","postal_code":"37211","latitude":36.0693696,"longitude":-86.7196702,"stars":5.0,"review_count":6,"is_open":1,"attributes":{"BusinessAcceptsCreditCards":"True"},"categories":"Auto Parts & Supplies, Automotive","hours":{"Monday":"7:0-22:0","Tuesday":"7:0-22:0","Wednesday":"7:0-22:0","Thursday":"7:0-22:0","Friday":"7:0-22:0","Saturday":"7:0-22:0","Sunday":"8:0-21:0"}}
{"business_id":"5PDNXMquh1C9E089G1RY2g","name":"Ob's Pizza Pub & Eatery","address":"2102 N Mitthoeffer Rd","city":"Indianapolis","state":"IN","postal_code":"46229","latitude":39.797385,"longitude":-85.9921824,"stars":3.5,"review_count":10,"is_open":1,"attributes":{"BusinessAcceptsCreditCards":"True","RestaurantsDelivery":"False","RestaurantsGoodForGroups":"True","GoodForKids":"False","RestaurantsTakeOut":"True","OutdoorSeating":"True","RestaurantsAttire":"'casual'","RestaurantsPriceRange2":"1","GoodForMeal":"{'dessert': False, 'latenight': False, 'lunch': False, 'dinner': False, 'brunch': False, 'breakfast': False}","BusinessParking":"{'garage': False, 'street': False, 'validated': False, 'lot': True, 'valet': False}","RestaurantsReservations":"False","BestNights":"{'monday': False, 'tuesday': False, 'friday': False, 'wednesday': False, 'thursday': False, 'sunday': False, 'saturday': False}","Ambience":"{u'divey': None, u'hipster': None, u'casual': None, u'touristy': False, u'trendy': None, u'intimate': None, u'romantic': None, u'classy': None, u'upscale': None}","HasTV":"True","Alcohol":"'full_bar'","Music":"{'dj': False, 'background_music': False, 'no_music': False, 'jukebox': False, 'live': True, 'video': False, 'karaoke': False}"},"categories":"Nightlife, Pubs, Pizza, Bars, Restaurants, American (Traditional), Music Venues, Arts & Entertainment, Dance Clubs","hours":null}
{"business_id":"x483GUYbdSgjaX9Xi3nOUA","name":"Mirna's","address":"417 Old York Rd","city":"Jenkintown","state":"PA","postal_code":"19046","latitude":40.0964196,"longitude":-75.1260276,"stars":3.5,"review_count":26,"is_open":0,"attributes":{"Alcohol":"u'none'","BikeParking":"False","RestaurantsAttire":"u'casual'","BusinessParking":"None","OutdoorSeating":"False","Ambience":"{'touristy': False, 'hipster': False, 'romantic': False, 'divey': False, 'intimate': False, 'trendy': False, 'upscale': False, 'classy': False, 'casual': True}","GoodForKids":"True","WiFi":"'no'","RestaurantsPriceRange2":"2","RestaurantsDelivery":"True","NoiseLevel":"u'average'","RestaurantsTakeOut":"True","BusinessAcceptsCreditCards":"True","RestaurantsReservations":"True","RestaurantsGoodForGroups":"True","HasTV":"False","GoodForMeal":"{'dessert': False, 'latenight': False, 'lunch': False, 'dinner': True, 'brunch': False, 'breakfast': False}","Caters":"True"},"categories":"Restaurants, Mediterranean","hours":{"Tuesday":"16:0-21:0","Wednesday":"16:0-21:0","Thursday":"16:0-21:0","Friday":"16:0-21:0","Saturday":"16:0-21:0","Sunday":"16:0-21:0"}}
{"business_id":"tThP9jkCZHTrFvwEhGeKzw","name":"Divine Creations Unisex Salon","address":"509 S 52nd St","city":"Philadelphia","state":"PA","postal_code":"19143","latitude":39.9516457,"longitude":-75.2263698,"stars":4.5,"review_count":5,"is_open":1,"attributes":{"GoodForKids":"True","BikeParking":"False","BusinessParking":"{'garage': False, 'street': True, 'validated': False, 'lot': False, 'valet': False}","BusinessAcceptsCreditCards":"True","RestaurantsPriceRange2":"2","ByAppointmentOnly":"False"},"categories":"Hair Salons, Beauty & Spas","hours":{"Monday":"8:30-18:0","Wednesday":"8:30-18:0","Thursday":"8:30-18:0","Friday":"8:30-18:0","Saturday":"19:30-4:0"}}
{"business_id":"UJE-f8gVEB2za5QPZd_wVw","name":"Pizza Hut","address":"317 W Esplanade Ave","city":"Kenner","state":"LA","postal_code":"70065","latitude":30.0226540534,"longitude":-90.2691832749,"stars":2.0,"review_count":16,"is_open":1,"attributes":{"GoodForKids":"True","RestaurantsGoodForGroups":"False","BusinessAcceptsCreditCards":"True","OutdoorSeating":"False","Alcohol":"u'none'","RestaurantsTakeOut":"True","RestaurantsAttire":"'casual'","WiFi":"u'no'","RestaurantsReservations":"False","Ambience":"{'romantic': False, 'intimate': False, 'touristy': False, 'hipster': False, 'divey': False, 'classy': False, 'trendy': False, 'upscale': False, 'casual': False}","Caters":"False","BikeParking":"False","RestaurantsDelivery":"True","RestaurantsTableService":"False","HasTV":"True","RestaurantsPriceRange2":"1","BusinessParking":"{'garage': False, 'street': False, 'validated': False, 'lot': False, 'valet': False}","GoodForMeal":"{'dessert': False, 'latenight': False, 'lunch': False, 'dinner': False, 'brunch': False, 'breakfast': False}"},"categories":"Italian, Fast Food, Chicken Wings, Restaurants, Pizza","hours":{"Monday":"11:0-22:0","Tuesday":"11:0-22:0","Wednesday":"11:0-22:0","Thursday":"11:0-22:0","Friday":"11:0-23:0","Saturday":"11:0-23:0","Sunday":"11:0-22:0"}}
{"business_id":"3GGGwkQ8A0ICQTfwTKPiQw","name":"Captain D's","address":"2123 Memorial Blvd","city":"Springfield","state":"TN","postal_code":"37172","latitude":36.4922337558,"longitude":-86.875317026,"stars":2.0,"review_count":10,"is_open":1,"attributes":{"NoiseLevel":"u'quiet'","WiFi":"u'no'","RestaurantsGoodForGroups":"True","HasTV":"False","GoodForKids":"True","BusinessAcceptsCreditCards":"True","BusinessParking":"{'garage': False, 'street': False, 'validated': False, 'lot': True, 'valet': False}","Caters":"False","DogsAllowed":"False","RestaurantsTableService":"False","WheelchairAccessible":"True","RestaurantsTakeOut":"True","RestaurantsDelivery":"True","RestaurantsReservations":"False"},"categories":"Fast Food, Fish & Chips, American (Traditional), Seafood, Restaurants","hours":{"Monday":"0:0-0:0","Tuesday":"10:45-22:0","Wednesday":"10:45-22:0","Thursday":"10:45-22:0","Friday":"10:45-18:0","Saturday":"10:45-22:0","Sunday":"10:45-22:0"}}
{"business_id":"Y3ZCO17N1_T_Ms1JmswwzA","name":"Taqueria Pico De Gallo","address":"2618 S 6th Ave","city":"Tucson","state":"AZ","postal_code":"85713","latitude":32.1920174772,"longitude":-110.968540052,"stars":4.0,"review_count":397,"is_open":1,"attributes":{"RestaurantsGoodForGroups":"True","Caters":"False","BusinessParking":"{'garage': False, 'street': False, 'validated': False, 'lot': True, 'valet': False}","GoodForKids":"True","RestaurantsPriceRange2":"1","BikeParking":"True","RestaurantsAttire":"'casual'","Alcohol":"u'none'","RestaurantsReservations":"False","WiFi":"u'no'","RestaurantsTakeOut":"True","NoiseLevel":"u'average'","BusinessAcceptsCreditCards":"True","Ambience":"{'touristy': False, 'hipster': False, 'romantic': False, 'divey': True, 'intimate': False, 'trendy': False, 'upscale': False, 'classy': False, 'casual': True}","DogsAllowed":"False","GoodForMeal":"{'dessert': False, 'latenight': False, 'lunch': True, 'dinner': None, 'brunch': False, 'breakfast': False}","HasTV":"True","RestaurantsTableService":"False","OutdoorSeating":"True","RestaurantsDelivery":"True","BYOB":"True","HappyHour":"True","WheelchairAccessible":"True","Corkage":"False"},"categories":"Mexican, Restaurants","hours":{"Monday":"9:0-21:0","Tuesday":"9:0-21:0","Wednesday":"9:0-21:0","Thursday":"9:0-21:0","Friday":"9:0-21:0","Saturday":"9:0-21:0","Sunday":"9:0-21:0"}}
{"business_id":"2STdNUM3QLhnPfZF5X9eBw","name":"Downtown Cleaners","address":"206 4th Ave N","city":"Nashville","state":"TN","postal_code":"37219","latitude":36.1641199,"longitude":-86.7788099,"stars":2.5,"review_count":7,"is_open":0,"attributes":null,"categories":"Laundry Services, Dry Cleaning & Laundry, Local Services","hours":null}
{"business_id":"AjEg3RzLzQwv4xPPzTc6wQ","name":"Burger King","address":"916 Veterans Memorial Blvd","city":"Metairie","state":"LA","postal_code":"70005","latitude":30.0010945472,"longitude":-90.1325079767,"stars":1.5,"review_count":23,"is_open":1,"attributes":{"NoiseLevel":"u'quiet'","RestaurantsReservations":"False","RestaurantsAttire":"u'casual'","WiFi":"u'no'","BusinessAcceptsCreditCards":"True","RestaurantsPriceRange2":"1","GoodForKids":"True","RestaurantsGoodForGroups":"True","BikeParking":"True","RestaurantsDelivery":"True","Alcohol":"'none'","Ambience":"{'touristy': False, 'hipster': False, 'romantic': False, 'divey': False, 'intimate': False, 'trendy': False, 'upscale': False, 'classy': False, 'casual': False}","BusinessParking":"{'garage': False, 'street': False, 'validated': False, 'lot': True, 'valet': False}","HasTV":"True","OutdoorSeating":"False","RestaurantsTakeOut":"False"},"categories":"Hot Dogs, Burgers, Restaurants, Fast Food","hours":{"Monday":"5:30-1:0","Tuesday":"5:30-1:0","Wednesday":"5:30-1:0","Thursday":"5:30-1:0","Friday":"5:30-22:0","Saturday":"11:0-1:0","Sunday":"6:0-0:0"}}
{"business_id":"PaOJy2n3oRBpIigV6TMxlg","name":"Old Country Buffet","address":"650 Commerce Blvd","city":"Fairless Hills","state":"PA","postal_code":"19030","latitude":40.1880129,"longitude":-74.8662818,"stars":2.5,"review_count":27,"is_open":0,"attributes":{"WiFi":"u'no'","BusinessParking":"{'garage': False, 'street': False, 'validated': False, 'lot': True, 'valet': False}","BusinessAcceptsCreditCards":"True","BikeParking":"True","GoodForKids":"True","NoiseLevel":"u'very_loud'","Alcohol":"u'none'","RestaurantsGoodForGroups":"True","RestaurantsReservations":"False","RestaurantsAttire":"u'casual'","HasTV":"False","RestaurantsPriceRange2":"2","Ambience":"{'touristy': False, 'hipster': False, 'romantic': False, 'divey': False, 'intimate': False, 'trendy': False, 'upscale': False, 'classy': False, 'casual': False}","OutdoorSeating":"False","RestaurantsDelivery":"False","Caters":"False","RestaurantsTakeOut":"False"},"categories":"Restaurants, American (Traditional), Breakfast & Brunch, American (New), Buffets","hours":{"Monday":"11:0-20:30","Tuesday":"11:0-20:30","Wednesday":"11:0-20:30","Thursday":"11:0-20:30","Friday":"11:0-21:0","Saturday":"8:0-21:0","Sunday":"8:0-20:30"}}
{"business_id":"0fvCfMxK4GXVOG2QK-esCA","name":"Coin Laundry","address":"905 N Carrollton Ave","city":"New Orleans","state":"LA","postal_code":"70119","latitude":29.9809468,"longitude":-90.0942656,"stars":4.0,"review_count":14,"is_open":1,"attributes":{"RestaurantsPriceRange2":"1","WiFi":"'no'","BusinessParking":"{'garage': False, 'street': False, 'validated': False, 'lot': True, 'valet': False}","BikeParking":"True","BusinessAcceptsCreditCards":"False"},"categories":"Local Services, Dry Cleaning & Laundry, Laundromat, Laundry Services","hours":null}
{"business_id":"X_BAJL4zKaWpU_rreXLcVA","name":"Closets by Design - South East Pennsylvania","address":"60 Three Tun Rd, Ste 1","city":"Malvern","state":"PA","postal_code":"19355","latitude":40.0362978056,"longitude":-75.5544781212,"stars":4.5,"review_count":6,"is_open":1,"attributes":{"BusinessAcceptsCreditCards":"True"},"categories":"Contractors, Home Services, Cabinetry, Interior Design","hours":{"Monday":"8:0-18:0","Tuesday":"8:0-18:0","Wednesday":"8:0-18:0","Thursday":"8:0-18:0","Friday":"8:0-18:0","Saturday":"9:0-16:0","Sunday":"11:0-16:0"}}
{"business_id":"di5ihAL9VWoctHelY8kLTQ","name":"Gigi and Big R","address":"38th and Spruce","city":"Philadelphia","state":"PA","postal_code":"19104","latitude":39.9512903,"longitude":-75.1992768,"stars":4.0,"review_count":81,"is_open":1,"attributes":{"BikeParking":"True","Caters":"False","RestaurantsGoodForGroups":"False","WiFi":"u'no'","RestaurantsPriceRange2":"2","NoiseLevel":"u'average'","BusinessAcceptsCreditCards":"False","RestaurantsReservations":"False","GoodForKids":"False","RestaurantsTakeOut":"True","OutdoorSeating":"False","RestaurantsAttire":"u'casual'","Ambience":"{'touristy': False, 'hipster': False, 'romantic': False, 'divey': False, 'intimate': False, 'trendy': False, 'upscale': False, 'classy': True, 'casual': True}","Alcohol":"u'none'","HasTV":"True","BusinessParking":"{u'valet': False, u'garage': False, u'street': True, u'lot': False, u'validated': None}","RestaurantsDelivery":"True"},"categories":"Restaurants, Food, Caribbean, Food Trucks","hours":null}
{"business_id":"TTsBa6e2qgIEkiFQfYLmYA","name":"Twistee Treat - New Tampa","address":"8810 New Tampa Blvd","city":"Tampa","state":"FL","postal_code":"33647","latitude":28.1440679511,"longitude":-82.3539949058,"stars":3.5,"review_count":70,"is_open":1,"attributes":{"Caters":"False","RestaurantsTakeOut":"True","BikeParking":"True","BusinessAcceptsCreditCards":"True","BusinessParking":"{'garage': False, 'street': False, 'validated': False, 'lot': True, 'valet': False}","RestaurantsPriceRange2":"1","WiFi":"'no'","GoodForMeal":"{'dessert': False, 'latenight': False, 'lunch': False, 'dinner': False, 'brunch': False, 'breakfast': False}","DogsAllowed":"True","NoiseLevel":"u'average'","RestaurantsGoodForGroups":"True","WheelchairAccessible":"True","GoodForKids":"True","RestaurantsReservations":"False","OutdoorSeating":"True","RestaurantsDelivery":"False","HasTV":"True","Ambience":"{'touristy': False, 'hipster': False, 'romantic': False, 'divey': False, 'intimate': False, 'trendy': False, 'upscale': False, 'classy': False, 'casual': False}","BusinessAcceptsBitcoin":"False"},"categories":"Juice Bars & Smoothies, Ice Cream & Frozen Yogurt, American (Traditional), Food, Desserts, Hot Dogs, Restaurants","hours":{"Monday":"0:0-0:0","Tuesday":"13:0-23:0","Wednesday":"13:0-23:0","Thursday":"13:0-20:0","Friday":"13:0-0:0","Saturday":"13:0-0:0","Sunday":"13:0-23:0"}}
{"business_id":"Cr-uaPrfvG7tvqzLGAGErA","name":"Kyoto Japanese Cuisine","address":"8701 109 Street NW","city":"Edmonton","state":"AB","postal_code":"T6G 2L5","latitude":53.5231333193,"longitude":-113.5113531433,"stars":3.5,"review_count":58,"is_open":1,"attributes":{"RestaurantsAttire":"u'casual'","RestaurantsReservations":"True","NoiseLevel":"u'average'","RestaurantsGoodForGroups":"True","RestaurantsPriceRange2":"2","OutdoorSeating":"False","Alcohol":"u'full_bar'","GoodForKids":"True","BikeParking":"True","RestaurantsTakeOut":"True","RestaurantsDelivery":"False","BusinessParking":"{'garage': False, 'street': False, 'validated': False, 'lot': True, 'valet': False}","WiFi":"u'no'","Caters":"False","Ambience":"{'touristy': False, 'hipster': False, 'romantic': False, 'intimate': False, 'trendy': False, 'upscale': False, 'classy': True, 'casual': True}","HasTV":"True","GoodForMeal":"{'dessert': False, 'latenight': False, 'lunch': True, 'dinner': True, 'brunch': False, 'breakfast': False}"},"categories":"Japanese, Restaurants, Sushi Bars, Asian Fusion","hours":{"Monday":"11:0-22:0","Tuesday":"11:0-22:0","Wednesday":"11:0-22:0","Thursday":"11:0-22:0","Friday":"11:0-23:0","Saturday":"11:0-23:0","Sunday":"11:0-22:0"}}
{"business_id":"cDDxC4MS5YrRKTBr7j6iAg","name":"Ascension Saint Thomas Urgent Care - Nashville - Inglewood","address":"3024 Gallatin Pike","city":"Nashville","state":"TN","postal_code":"37216","latitude":36.2046621,"longitude":-86.7373599,"stars":2.0,"review_count":14,"is_open":1,"attributes":{"BusinessAcceptsCreditCards":"True","AcceptsInsurance":"True"},"categories":"Medical Centers, Urgent Care, Walk-in Clinics, Health & Medical, Doctors, Family Practice","hours":{"Monday":"0:0-0:0","Tuesday":"8:0-20:0","Wednesday":"8:0-20:0","Thursday":"8:0-20:0","Friday":"8:0-20:0","Saturday":"9:0-17:0","Sunday":"13:0-17:0"}}
{"business_id":"DM48fucxfXKf--e3ZqHq0Q","name":"Tires, Etc","address":"515 W Baltimore Ave","city":"Clifton Heights","state":"PA","postal_code":"19018","latitude":39.9268764,"longitude":-75.3055492,"stars":2.0,"review_count":80,"is_open":1,"attributes":{"BusinessAcceptsCreditCards":"True"},"categories":"Automotive, Tires","hours":{"Monday":"7:30-18:0","Tuesday":"7:30-18:0","Wednesday":"7:30-18:0","Thursday":"7:30-18:0","Friday":"7:30-18:0","Saturday":"8:0-18:0","Sunday":"9:0-16:0"}}
{"business_id":"hOnVPQXS9ZJU9njHY9aZwQ","name":"Tesla Service Center","address":"8280 Castleton Corner Dr","city":"Indianapolis","state":"IN","postal_code":"46250","latitude":39.9068,"longitude":-86.07141,"stars":4.5,"review_count":7,"is_open":1,"attributes":null,"categories":"Solar Installation, Auto Repair, Home Services, Automotive, Car Dealers","hours":{"Monday":"10:0-19:0","Tuesday":"10:0-19:0","Wednesday":"10:0-19:0","Thursday":"10:0-19:0","Friday":"10:0-19:0","Saturday":"10:0-19:0"}}
{"business_id":"ws-gbVjt56zCQC-CR5pjTQ","name":"Dunkin'","address":"717 Cypress Village Blvd","city":"Ruskin","state":"FL","postal_code":"33573","latitude":27.7139046,"longitude":-82.3764519,"stars":2.5,"review_count":29,"is_open":1,"attributes":{"RestaurantsPriceRange2":"1","RestaurantsTakeOut":"True","WiFi":"'free'","DriveThru":"None","BusinessParking":"{'garage': False, 'street': False, 'validated': False, 'lot': True, 'valet': False}","BikeParking":"True","BusinessAcceptsCreditCards":"True","OutdoorSeating":"True","RestaurantsDelivery":"True"},"categories":"Coffee & Tea, Bagels, Ice Cream & Frozen Yogurt, Food, Donuts","hours":{"Monday":"5:0-22:0","Tuesday":"5:0-22:0","Wednesday":"5:0-22:0","Thursday":"5:0-22:0","Friday":"5:0-22:0","Saturday":"5:0-22:0","Sunday":"5:0-22:0"}}
{"business_id":"Cgt1HwatFE0sscdH6SlijA","name":"Ellerslie Gift & Garden","address":"10330 Ellerslie Road SW","city":"Edmonton","state":"AB","postal_code":"T6W 1A1","latitude":53.4263451659,"longitude":-113.4950146099,"stars":4.0,"review_count":8,"is_open":1,"attributes":{"RestaurantsPriceRange2":"3","BusinessParking":"{'garage': False, 'street': False, 'validated': False, 'lot': True, 'valet': False}","BikeParking":"True"},"categories":"Food, Furniture Stores, Accessories, Flowers & Gifts, Nurseries & Gardening, Home & Garden, Shopping, Fashion","hours":{"Monday":"8:0-20:0","Tuesday":"8:0-20:0","Wednesday":"8:0-20:0","Thursday":"8:0-20:0","Friday":"8:0-20:0","Saturday":"8:0-18:0"}}
{"business_id":"tDFlxSHAU1OkFjSXeVb9fg","name":"All About Vacuums","address":"1776 S Easton Rd","city":"Doylestown","state":"PA","postal_code":"18901","latitude":40.2789491,"longitude":-75.1268805,"stars":5.0,"review_count":5,"is_open":1,"attributes":null,"categories":"Appliances, Shopping, Local Services, Sewing & Alterations, Home Services, Home & Garden, Heating & Air Conditioning\/HVAC, Appliances & Repair","hours":{"Monday":"10:0-17:0","Tuesday":"10:0-17:0","Wednesday":"10:0-17:0","Thursday":"10:0-17:0","Friday":"10:0-17:0","Saturday":"10:0-16:0"}}
{"business_id":"zxpJ4Frr8Zoru-YaNzOxzw","name":"China Spring","address":"8165 Hwy 100","city":"Nashville","state":"TN","postal_code":"37221","latitude":36.0441354,"longitude":-86.9579331,"stars":3.5,"review_count":33,"is_open":1,"attributes":{"RestaurantsReservations":"False","WiFi":"u'no'","RestaurantsPriceRange2":"1","BusinessAcceptsCreditCards":"True","RestaurantsAttire":"u'casual'","GoodForKids":"True","RestaurantsTakeOut":"True","Alcohol":"u'none'","NoiseLevel":"u'average'","Ambience":"{'romantic': False, 'intimate': False, 'touristy': False, 'hipster': False, 'divey': False, 'classy': False, 'trendy': False, 'upscale': False, 'casual': False}","OutdoorSeating":"False","RestaurantsGoodForGroups":"False","HasTV":"True","Caters":"True","RestaurantsDelivery":"True","BusinessParking":"{'garage': False, 'street': False, 'validated': False, 'lot': True, 'valet': False}"},"categories":"Chinese, Restaurants","hours":{"Tuesday":"10:45-21:30","Wednesday":"10:45-21:30","Thursday":"10:45-21:30","Friday":"10:45-22:0","Saturday":"10:45-22:0","Sunday":"10:45-21:30"}}
{"business_id":"j5U5O3scMvPe67jzJcWFug","name":"Zaxby's Chicken Fingers & Buffalo Wings","address":"11619 W Hillsborough Ave","city":"Tampa","state":"FL","postal_code":"33635","latitude":28.0146920537,"longitude":-82.6140054742,"stars":3.0,"review_count":37,"is_open":1,"attributes":{"RestaurantsReservations":"False","BusinessAcceptsCreditCards":"True","RestaurantsGoodForGroups":"True","WiFi":"'free'","RestaurantsPriceRange2":"1","GoodForMeal":"{'dessert': False, 'latenight': False, 'lunch': True, 'dinner': False, 'brunch': False, 'breakfast': False}","RestaurantsDelivery":"True","BikeParking":"True","GoodForKids":"True","Ambience":"{'touristy': False, 'hipster': False, 'romantic': False, 'divey': False, 'intimate': False, 'trendy': False, 'upscale': False, 'classy': False, 'casual': False}","HasTV":"True","RestaurantsAttire":"'casual'","OutdoorSeating":"False","DriveThru":"True","BusinessParking":"{'garage': False, 'street': False, 'validated': False, 'lot': True, 'valet': False}","RestaurantsTakeOut":"True","Alcohol":"'none'"},"categories":"Restaurants, Chicken Shop, Chicken Wings, Salad, Fast Food","hours":{"Monday":"10:30-22:0","Tuesday":"10:30-22:0","Wednesday":"10:30-22:0","Thursday":"10:30-22:0","Friday":"10:30-23:0","Saturday":"10:30-23:0","Sunday":"11:0-22:0"}}
{"business_id":"gkh6xzmRJvEjVV63LffsRQ","name":"Valentine Plumbing","address":"","city":"Tucson","state":"AZ","postal_code":"85716","latitude":32.2479302,"longitude":-110.9208593,"stars":4.5,"review_count":8,"is_open":1,"attributes":{"BusinessAcceptsCreditCards":"True"},"categories":"Plumbing, Water Heater Installation\/Repair, Home Services","hours":{"Monday":"8:0-17:0","Tuesday":"8:0-17:0","Wednesday":"8:0-17:0","Thursday":"8:0-17:0","Friday":"8:0-17:0"}}
{"business_id":"s5tg9sBfO3FhJyvivXe15A","name":"Bank of Tucson","address":"6400 N Oracle Rd","city":"Tucson","state":"AZ","postal_code":"85704","latitude":32.3232104,"longitude":-110.9742745,"stars":2.5,"review_count":7,"is_open":0,"attributes":null,"categories":"Banks & Credit Unions, Financial Services","hours":{"Monday":"9:0-16:0","Tuesday":"9:0-16:0","Wednesday":"9:0-16:0","Thursday":"9:0-16:0","Friday":"9:0-16:0"}}
{"business_id":"gv9IWG3dejsacl6xPG-yyg","name":"Little Caesars","address":"4091 Mallory Ln","city":"Franklin","state":"TN","postal_code":"37067","latitude":35.9331871,"longitude":-86.8246085,"stars":2.0,"review_count":14,"is_open":1,"attributes":{"NoiseLevel":"u'quiet'","Alcohol":"u'none'","WiFi":"u'no'","BikeParking":"True","OutdoorSeating":"True","RestaurantsPriceRange2":"1","RestaurantsDelivery":"False","BusinessParking":"{'garage': False, 'street': False, 'validated': False, 'lot': False, 'valet': False}","BusinessAcceptsCreditCards":"True","GoodForKids":"True","RestaurantsReservations":"False","RestaurantsAttire":"'casual'","RestaurantsTakeOut":"True","HasTV":"True","RestaurantsGoodForGroups":"True","Ambience":"{'touristy': False, 'hipster': False, 'romantic': False, 'divey': False, 'intimate': False, 'trendy': False, 'upscale': False, 'classy': False, 'casual': False}","GoodForMeal":"{'dessert': False, 'latenight': False, 'lunch': False, 'dinner': False, 'brunch': False, 'breakfast': False}"},"categories":"American (New), Restaurants, Food, Pizza","hours":{"Monday":"11:0-21:0","Tuesday":"11:0-21:0","Wednesday":"11:0-21:0","Thursday":"11:0-21:0","Friday":"11:0-22:0","Saturday":"11:0-22:0","Sunday":"11:0-21:0"}}
{"business_id":"bk3u2UQoo516mPz9e1_vqw","name":"CAVA","address":"3741 W Chester Pike, Ste 107","city":"Newtown Square","state":"PA","postal_code":"19073","latitude":39.9870475,"longitude":-75.4059742,"stars":5.0,"review_count":5,"is_open":1,"attributes":{"BusinessAcceptsCreditCards":"True"},"categories":"Mediterranean, Restaurants, Salad","hours":{"Monday":"10:45-22:0","Tuesday":"10:45-22:0","Wednesday":"10:45-22:0","Thursday":"10:45-22:0","Friday":"10:45-22:0","Saturday":"10:45-22:0","Sunday":"10:45-22:0"}}
{"business_id":"RCguFZat10TcbDMeeeM3IQ","name":"El Pollo Loco","address":"8030 S Virginia St","city":"Reno","state":"NV","postal_code":"89511","latitude":39.4555489488,"longitude":-119.7781964498,"stars":3.0,"review_count":73,"is_open":1,"attributes":{"RestaurantsTableService":"False","GoodForKids":"True","RestaurantsReservations":"False","RestaurantsTakeOut":"True","BusinessAcceptsCreditCards":"True","Alcohol":"u'none'","GoodForMeal":"{'dessert': False, 'latenight': False, 'lunch': True, 'dinner': True, 'brunch': False, 'breakfast': False}","OutdoorSeating":"False","RestaurantsAttire":"'casual'","RestaurantsGoodForGroups":"True","Caters":"True","Ambience":"{'romantic': False, 'intimate': False, 'classy': False, 'hipster': False, 'divey': False, 'touristy': False, 'trendy': False, 'upscale': False, 'casual': True}","DriveThru":"True","RestaurantsPriceRange2":"1","NoiseLevel":"u'average'","BikeParking":"True","HasTV":"True","WiFi":"u'no'","RestaurantsDelivery":"True","BusinessParking":"{'garage': False, 'street': None, 'validated': False, 'lot': True, 'valet': False}"},"categories":"Restaurants, Chicken Wings, Mexican, Fast Food","hours":{"Monday":"0:0-0:0","Tuesday":"10:0-22:0","Wednesday":"10:0-22:0","Thursday":"10:0-22:0","Friday":"10:0-22:0","Saturday":"11:0-20:0","Sunday":"10:0-22:0"}}
{"business_id":"IZv79jZv6el1sBHrG7426g","name":"J Gilbert's Wood-Fired Steaks & Seafood St Louis","address":"17A W County Ctr, Ste A102","city":"Des Peres","state":"MO","postal_code":"63131","latitude":38.6017712,"longitude":-90.4475467,"stars":4.0,"review_count":268,"is_open":1,"attributes":{"RestaurantsAttire":"'casual'","Alcohol":"u'full_bar'","RestaurantsTakeOut":"True","BusinessAcceptsCreditCards":"True","GoodForKids":"False","RestaurantsReservations":"True","WiFi":"u'free'","NoiseLevel":"u'average'","RestaurantsGoodForGroups":"True","BikeParking":"True","OutdoorSeating":"True","BusinessParking":"{'garage': True, 'street': False, 'validated': False, 'lot': False, 'valet': True}","Ambience":"{'romantic': False, 'intimate': False, 'classy': True, 'hipster': False, 'divey': False, 'touristy': False, 'trendy': False, 'upscale': False, 'casual': False}","RestaurantsPriceRange2":"3","HasTV":"True","DogsAllowed":"False","WheelchairAccessible":"True","HappyHour":"True","BusinessAcceptsBitcoin":"False","ByAppointmentOnly":"False","RestaurantsDelivery":"True","RestaurantsTableService":"True","Caters":"True","GoodForMeal":"{'dessert': None, 'latenight': False, 'lunch': None, 'dinner': True, 'brunch': False, 'breakfast': False}"},"categories":"Steakhouses, American (New), Restaurants, Seafood","hours":{"Monday":"0:0-0:0","Tuesday":"11:0-23:0","Wednesday":"16:0-20:0","Thursday":"11:0-20:0","Friday":"15:0-21:0","Saturday":"16:0-21:30","Sunday":"16:0-20:0"}}
{"business_id":"KNENdro7IkpUSzNH6LthpA","name":"Tatums Bait & Tackle","address":"2445 34th St S","city":"St. Petersburg","state":"FL","postal_code":"33711","latitude":27.7456212973,"longitude":-82.6796751114,"stars":3.5,"review_count":6,"is_open":1,"attributes":{"GoodForKids":"False","BusinessParking":"{'garage': False, 'street': False, 'validated': False, 'lot': False, 'valet': False}","BikeParking":"False","BusinessAcceptsCreditCards":"True","RestaurantsPriceRange2":"1"},"categories":"Shopping, Outdoor Gear, Active Life, Fishing, Sporting Goods","hours":{"Monday":"6:0-20:0","Tuesday":"6:0-20:0","Wednesday":"6:0-20:0","Thursday":"6:0-20:0","Friday":"6:0-22:0","Saturday":"6:0-22:0","Sunday":"6:0-20:0"}}
{"business_id":"zzHtFjfM7NvuVM1HTsCLGA","name":"Nom Nom Japanese Kitchen","address":"35 W Lancaster Ave","city":"Paoli","state":"PA","postal_code":"19301","latitude":40.0420645,"longitude":-75.4858339,"stars":4.5,"review_count":35,"is_open":0,"attributes":{"RestaurantsTakeOut":"None","RestaurantsPriceRange2":"2","Ambience":"{'touristy': None, 'hipster': None, 'romantic': None, 'divey': None, 'intimate': True, 'trendy': None, 'upscale': None, 'classy': None, 'casual': True}","BusinessParking":"{'garage': None, 'street': True, 'validated': False, 'lot': True, 'valet': False}","Alcohol":"u'none'","RestaurantsDelivery":"None"},"categories":"Sushi Bars, Ramen, Restaurants, Japanese","hours":{"Monday":"12:0-20:0","Tuesday":"12:0-20:0","Wednesday":"12:0-20:0","Thursday":"12:0-20:0","Friday":"12:0-21:0","Saturday":"12:0-21:0","Sunday":"12:0-20:0"}}
{"business_id":"AobR6FbXcVzagwthMfdIzQ","name":"Hollywood Tans","address":"579 Cross-keys Rd","city":"Sicklerville","state":"NJ","postal_code":"08081","latitude":39.7386711,"longitude":-75.0019867,"stars":2.5,"review_count":5,"is_open":1,"attributes":{"RestaurantsPriceRange2":"2","ByAppointmentOnly":"False","BusinessAcceptsCreditCards":"True","BusinessParking":"{'garage': False, 'street': False, 'validated': False, 'lot': False, 'valet': False}"},"categories":"Tanning, Beauty & Spas","hours":{"Monday":"8:0-22:0","Tuesday":"8:0-22:0","Wednesday":"8:0-22:0","Thursday":"8:0-22:0","Friday":"8:0-21:0","Saturday":"8:0-20:0","Sunday":"9:0-18:0"}}
{"business_id":"4-WY7Omp6ibxkdKk3abQ3A","name":"Community Hospital South","address":"1402 E County Line Rd","city":"Indianapolis","state":"IN","postal_code":"46227","latitude":39.637759,"longitude":-86.132597,"stars":2.5,"review_count":32,"is_open":1,"attributes":{"ByAppointmentOnly":"False","BusinessAcceptsCreditCards":"True"},"categories":"Health & Medical, Hospitals","hours":{"Monday":"0:0-0:0","Tuesday":"0:0-0:0","Wednesday":"0:0-0:0","Thursday":"0:0-0:0","Friday":"0:0-0:0","Saturday":"0:0-0:0","Sunday":"0:0-0:0"}}
{"business_id":"TOQWqz5Cmd9H_va3HqYlIw","name":"Gateway Moving & Storage","address":"12747 Olive Blvd","city":"Saint Louis","state":"MO","postal_code":"63141","latitude":38.6806214,"longitude":-90.4716907,"stars":1.5,"review_count":16,"is_open":1,"attributes":null,"categories":"Movers, Home Services, Self Storage, Local Services","hours":{"Monday":"9:0-18:0","Tuesday":"9:0-18:0","Wednesday":"9:0-18:0","Thursday":"9:0-18:0","Friday":"9:0-18:0","Saturday":"10:0-16:0"}}
{"business_id":"Pb5agnsD9EdCl6yuZp2jJA","name":"O Sole Mio","address":"250 Catharine St","city":"Philadelphia","state":"PA","postal_code":"19147","latitude":39.9378287,"longitude":-75.1482632,"stars":4.5,"review_count":85,"is_open":1,"attributes":{"RestaurantsGoodForGroups":"True","RestaurantsDelivery":"True","HasTV":"True","Alcohol":"u'none'","RestaurantsTableService":"True","WiFi":"u'no'","GoodForMeal":"{'dessert': False, 'latenight': False, 'lunch': False, 'dinner': False, 'brunch': False, 'breakfast': False}","OutdoorSeating":"True","WheelchairAccessible":"True","RestaurantsTakeOut":"True","GoodForKids":"True","BusinessAcceptsCreditCards":"True","RestaurantsReservations":"True","BusinessParking":"{'garage': None, 'street': None, 'validated': None, 'lot': False, 'valet': False}","Ambience":"{'touristy': None, 'hipster': None, 'romantic': None, 'divey': False, 'intimate': None, 'trendy': None, 'upscale': None, 'classy': None, 'casual': None}","HappyHour":"False","Caters":"True"},"categories":"Food, Seafood, Sardinian, Gelato, Restaurants, Pizza, Italian","hours":{"Tuesday":"11:0-22:0","Wednesday":"11:0-22:0","Thursday":"11:0-22:0","Friday":"11:0-22:0","Saturday":"11:0-22:0","Sunday":"1:0-22:0"}}
{"business_id":"3raJa_XvtP3biGDw1gFJ5Q","name":"Suzie Q's Diner","address":"9124 Seminole Blvd","city":"Seminole","state":"FL","postal_code":"33772","latitude":27.8555338,"longitude":-82.7877341,"stars":4.0,"review_count":26,"is_open":0,"attributes":{"RestaurantsTakeOut":"True","BusinessAcceptsCreditCards":"True","RestaurantsGoodForGroups":"False","RestaurantsDelivery":"True","RestaurantsAttire":"u'casual'","GoodForKids":"True","RestaurantsReservations":"False","BusinessParking":"{'garage': False, 'street': False, 'validated': False, 'lot': True, 'valet': False}","Caters":"False","Ambience":"{'romantic': False, 'intimate': False, 'classy': False, 'hipster': False, 'divey': False, 'touristy': False, 'trendy': False, 'upscale': False, 'casual': True}","OutdoorSeating":"False","GoodForMeal":"{'dessert': False, 'latenight': False, 'lunch': True, 'dinner': False, 'brunch': True, 'breakfast': True}","HasTV":"True","RestaurantsPriceRange2":"1","Alcohol":"u'none'","BikeParking":"True","WiFi":"u'no'","RestaurantsTableService":"True","NoiseLevel":"u'quiet'"},"categories":"Breakfast & Brunch, Restaurants, Sandwiches, American (Traditional), Diners","hours":{"Monday":"6:0-14:0","Tuesday":"6:0-14:0","Wednesday":"6:0-13:0","Thursday":"6:0-14:0","Friday":"7:0-14:0","Saturday":"6:0-14:0","Sunday":"6:0-14:0"}}
{"business_id":"qluIWCzDpeZfddykm_2gYg","name":"North American Motor Inns","address":"4444 City Ave","city":"Philadelphia","state":"PA","postal_code":"19131","latitude":40.0031369,"longitude":-75.2213329,"stars":1.0,"review_count":25,"is_open":1,"attributes":{"BusinessAcceptsCreditCards":"True","RestaurantsPriceRange2":"1","WiFi":"u'no'"},"categories":"Hotels, Event Planning & Services, Hotels & Travel, Caterers","hours":null}
