{"business_id":"u2v1Ml7xb-l5NUmOk5bcNA","name":"Wilensky Locks & Hardware","address":"1113 E Passyunk Ave","city":"Philadelphia","state":"PA","postal_code":"19147","latitude":39.93549,"longitude":-75.15664,"stars":4.5,"review_count":50,"is_open":1,"attributes":{"BusinessAcceptsCreditCards":"True","RestaurantsPriceRange2":"2","BusinessParking":"{'garage': False, 'street': True, 'validated': False, 'lot': False, 'valet': False}","ByAppointmentOnly":"False"},"categories":"Contractors, Home Services, Home & Garden, Hardware Stores, Keys & Locksmiths, Door Sales\/Installation, Shopping, Building Supplies","hours":{"Monday":"9:0-18:0","Tuesday":"9:0-18:0","Wednesday":"9:0-18:0","Thursday":"9:0-18:0","Friday":"9:0-18:0","Saturday":"9:0-17:0"}}
{"business_id":"qWTzwt7IyrElM2g9nVHm2Q","name":"Super Acucare Inc","address":"46 N 10th St","city":"Philadelphia","state":"PA","postal_code":"19107","latitude":39.9531797,"longitude":-75.1565947,"stars":4.5,"review_count":47,"is_open":1,"attributes":{"RestaurantsPriceRange2":"1","ByAppointmentOnly":"False","BusinessAcceptsCreditCards":"True","AcceptsInsurance":"False","BikeParking":"True","BusinessParking":"{'garage': False, 'street': False, 'validated': False, 'lot': False, 'valet': False}"},"categories":"Beauty & Spas, Massage, Acupuncture, Health & Medical","hours":{"Monday":"10:0-21:0","Tuesday":"10:0-21:0","Wednesday":"10:0-21:0","Thursday":"10:0-21:0","Friday":"10:0-21:0","Saturday":"10:0-21:0","Sunday":"10:0-21:0"}}
{"business_id":"o6hWaMjS7-CdXq3WzW9d8w","name":"Best Mattress","address":"4002 N Stone Ave","city":"Tucson","state":"AZ","postal_code":"85705","latitude":32.2795271,"longitude":-110.971946,"stars":5.0,"review_count":37,"is_open":1,"attributes":{"RestaurantsPriceRange2":"2","BusinessAcceptsCreditCards":"True","BusinessParking":"{'garage': False, 'street': False, 'validated': False, 'lot': True, 'valet': False}","BikeParking":"True","ByAppointmentOnly":"False","DogsAllowed":"True","BusinessAcceptsBitcoin":"False","WheelchairAccessible":"True"},"categories":"Home & Garden, Mattresses, Shopping, Furniture Stores","hours":{"Monday":"0:0-0:0","Tuesday":"9:0-18:0","Wednesday":"9:0-18:0","Thursday":"9:0-18:0","Friday":"9:0-18:0","Saturday":"9:0-17:0","Sunday":"11:0-16:0"}}
{"business_id":"g79jYJz3FEvgvglXqOUWxw","name":"IHOP","address":"3400 South I-10 Service Rd W","city":"Metairie","state":"LA","postal_code":"70001","latitude":29.99649,"longitude":-90.15929,"stars":3.0,"review_count":75,"is_open":1,"attributes":{"OutdoorSeating":"False","BusinessParking":"{'garage': False, 'street': False, 'validated': False, 'lot': True, 'valet': False}","GoodForKids":"True","HasTV":"False","RestaurantsAttire":"u'casual'","BusinessAcceptsCreditCards":"True","RestaurantsReservations":"False","RestaurantsGoodForGroups":"True","NoiseLevel":"u'average'","WiFi":"'free'","Alcohol":"u'none'","BikeParking":"True","RestaurantsTakeOut":"True","Caters":"False","DriveThru":"False","GoodForMeal":"{'dessert': None, 'latenight': True, 'lunch': None, 'dinner': None, 'brunch': True, 'breakfast': True}","RestaurantsPriceRange2":"2","HappyHour":"False","DogsAllowed":"False","RestaurantsDelivery":"True","CoatCheck":"False","ByAppointmentOnly":"False","Ambience":"{'touristy': None, 'hipster': False, 'romantic': False, 'divey': None, 'intimate': False, 'trendy': False, 'upscale': False, 'classy': False, 'casual': True}"},"categories":"Breakfast & Brunch, Burgers, Restaurants, American (Traditional), American (New)","hours":{"Monday":"0:0-0:0","Tuesday":"0:0-0:0","Wednesday":"0:0-0:0","Thursday":"0:0-0:0","Friday":"0:0-0:0","Saturday":"0:0-0:0","Sunday":"0:0-0:0"}}
{"business_id":"QK1OLsTL-WORwk9acRVV8g","name":"CVS Pharmacy","address":"7240 E 82nd St","city":"Indianapolis","state":"IN","postal_code":"46256","latitude":39.9059375,"longitude":-86.0401804,"stars":2.0,"review_count":15,"is_open":1,"attributes":{"BikeParking":"False","BusinessParking":"{'garage': False, 'street': False, 'validated': False, 'lot': False, 'valet': False}","RestaurantsPriceRange2":"2","RestaurantsTakeOut":"False","RestaurantsDelivery":"True","BusinessAcceptsCreditCards":"True","DriveThru":"True"},"categories":"Food, Convenience Stores, Shopping, Drugstores, Health & Medical, Pharmacy","hours":{"Monday":"7:0-0:0","Tuesday":"7:0-0:0","Wednesday":"7:0-0:0","Thursday":"7:0-0:0","Friday":"7:0-0:0","Saturday":"7:0-0:0","Sunday":"7:0-0:0"}}
{"business_id":"QCSLVCAx7nl_0B2PNVSnyg","name":"A Little Taste of Heaven Bakery","address":"2709 N Center St","city":"Maryville ","state":"IL","postal_code":"62062","latitude":38.7312912,"longitude":-89.9583502,"stars":4.5,"review_count":37,"is_open":1,"attributes":{"RestaurantsPriceRange2":"1","BusinessAcceptsCreditCards":"True","RestaurantsTakeOut":"True","Caters":"True","BikeParking":"True","ByAppointmentOnly":"False","BusinessAcceptsBitcoin":"False","BusinessParking":"{u'valet': False, u'garage': False, u'street': False, u'lot': True, u'validated': False}","DogsAllowed":"False","RestaurantsDelivery":"False"},"categories":"Food, Cupcakes, Bakeries, Patisserie\/Cake Shop, Desserts, Donuts","hours":{"Monday":"0:0-0:0","Tuesday":"6:0-12:0","Wednesday":"6:0-12:0","Thursday":"6:0-12:0","Friday":"6:0-12:0","Saturday":"6:0-12:0","Sunday":"6:0-12:0"}}
{"business_id":"xbE59o8d_8N72T0WMW1I8A","name":"Mattress Firm Harvard","address":"2000 Harvard Way","city":"Reno","state":"NV","postal_code":"89502","latitude":39.5044835853,"longitude":-119.7845926881,"stars":4.5,"review_count":33,"is_open":1,"attributes":{"BusinessAcceptsCreditCards":"True","BusinessParking":"{'garage': False, 'street': False, 'validated': False, 'lot': True, 'valet': False}","RestaurantsPriceRange2":"2","BikeParking":"True"},"categories":"Mattresses, Furniture Stores, Shopping, Home & Garden","hours":{"Monday":"10:0-21:0","Tuesday":"10:0-20:0","Wednesday":"10:0-20:0","Thursday":"10:0-20:0","Friday":"10:0-18:0","Saturday":"11:0-20:0","Sunday":"10:0-19:0"}}
{"business_id":"AUvCPs2Cyxg46r-FfFfMeA","name":"Branch Electric","address":"5930 Mcfarland Rd","city":"Indianapolis","state":"IN","postal_code":"46227","latitude":39.681775,"longitude":-86.112308,"stars":5.0,"review_count":8,"is_open":1,"attributes":{"BusinessAcceptsCreditCards":"True"},"categories":"Electricians, Home Services","hours":{"Monday":"9:0-9:0","Tuesday":"9:0-9:0","Wednesday":"9:0-9:0","Thursday":"9:0-9:0","Friday":"9:0-9:0","Saturday":"9:0-9:0","Sunday":"9:0-9:0"}}
{"business_id":"ezVZHFWFb-ptn4fjLn9seA","name":"Petco","address":"585 E Wetmore Rd","city":"Tucson","state":"AZ","postal_code":"85705","latitude":32.2866,"longitude":-110.9629,"stars":3.5,"review_count":25,"is_open":1,"attributes":{"BusinessAcceptsCreditCards":"True","OutdoorSeating":"False","RestaurantsReservations":"False","RestaurantsDelivery":"False","WheelchairAccessible":"True","RestaurantsTakeOut":"False","WiFi":"u'no'","HappyHour":"False","CoatCheck":"False","HasTV":"False","ByAppointmentOnly":"False","DogsAllowed":"True","Caters":"False"},"categories":"Pets, Pet Training, Pet Groomers, Pet Stores, Pet Services","hours":{"Monday":"0:0-0:0","Tuesday":"9:0-21:0","Wednesday":"9:0-22:0","Thursday":"10:0-19:0","Friday":"10:0-19:0","Saturday":"9:0-20:0","Sunday":"10:0-19:0"}}
{"business_id":"3H0C_auPnU2LcoKA-gPtiA","name":"Hawkins Field","address":"2600 Jess Neely Dr","city":"Nashville","state":"TN","postal_code":"37212","latitude":36.1434075923,"longitude":-86.8074001077,"stars":4.5,"review_count":10,"is_open":1,"attributes":{"GoodForKids":"True"},"categories":"Stadiums & Arenas, Arts & Entertainment","hours":null}
{"business_id":"fZWr8sjlseJsbDadBBKscw","name":"Generation Otaku","address":"300 N Maryland Ave","city":"Wilmington","state":"DE","postal_code":"19804","latitude":39.7304746,"longitude":-75.5827281,"stars":4.5,"review_count":6,"is_open":1,"attributes":{"RestaurantsPriceRange2":"1","BusinessParking":"{'garage': False, 'street': True, 'validated': False, 'lot': False, 'valet': False}","ByAppointmentOnly":"False","BusinessAcceptsCreditCards":"True","WheelchairAccessible":"False"},"categories":"Shopping, Hobby Shops","hours":{"Thursday":"15:0-20:0","Friday":"15:0-20:0","Saturday":"12:0-20:0"}}
