{"business_id":"-9n0NDe_pP1ZnrWr-lsDXQ","name":"Ralph's Barber Shop","address":"100 N Keswick Ave","city":"Glenside","state":"PA","postal_code":"19038","latitude":40.1007835,"longitude":-75.149119,"stars":3.5,"review_count":18,"is_open":1,"attributes":{"RestaurantsPriceRange2":"2","BusinessParking":"{'garage': False, 'street': True, 'validated': False, 'lot': False, 'valet': False}","ByAppointmentOnly":"False","BikeParking":"True","BusinessAcceptsCreditCards":"True"},"categories":"Beauty & Spas, Barbers","hours":{"Monday":"8:0-18:0","Tuesday":"8:0-18:0","Wednesday":"9:0-18:0","Thursday":"8:0-19:0","Friday":"8:0-18:0","Saturday":"8:0-16:0"}}
{"business_id":"3n_G-_DwOJ2VS4uGxBN6sg","name":"Lan Zhou Lamen","address":"2716 E Fowler Ave","city":"Tampa","state":"FL","postal_code":"33612","latitude":28.0554349,"longitude":-82.4292524,"stars":4.0,"review_count":78,"is_open":1,"attributes":{"RestaurantsGoodForGroups":"True","HasTV":"True","GoodForMeal":"{u'breakfast': None, u'brunch': None, u'lunch': None, u'dinner': True, u'latenight': None, u'dessert': None}","RestaurantsTableService":"True","Ambience":"{u'divey': None, u'hipster': None, u'casual': True, u'touristy': None, u'trendy': None, u'intimate': None, u'romantic': False, u'classy': None, u'upscale': False}","RestaurantsTakeOut":"None","RestaurantsDelivery":"None","BusinessAcceptsCreditCards":"True"},"categories":"Chinese, Noodles, Seafood, Chicken Wings, Restaurants","hours":{"Monday":"11:0-21:0","Tuesday":"11:0-21:0","Wednesday":"11:0-21:0","Thursday":"11:0-21:0","Friday":"11:0-21:0","Saturday":"11:0-21:0","Sunday":"12:0-21:0"}}
{"business_id":"2V5ki_0pbSn2wF8m1tGBHA","name":"Sport Seasons","address":"56 White Bridge Rd","city":"Nashville","state":"TN","postal_code":"37205","latitude":36.1300178,"longitude":-86.8518938,"stars":4.0,"review_count":18,"is_open":1,"attributes":{"BusinessAcceptsCreditCards":"True","WheelchairAccessible":"True","BikeParking":"True","RestaurantsPriceRange2":"2","BusinessParking":"{'garage': False, 'street': False, 'validated': False, 'lot': True, 'valet': False}"},"categories":"Sports Wear, Fashion, Sporting Goods, Shoe Stores, Shopping","hours":{"Monday":"10:0-20:0","Tuesday":"10:0-20:0","Wednesday":"10:0-20:0","Thursday":"10:0-20:0","Friday":"10:0-20:0","Saturday":"10:0-20:0","Sunday":"11:0-18:0"}}
{"business_id":"mmYJlrYW6H9lC6uwiHj8Cw","name":"Dennis Hernandez & Associates","address":"3339 W Kennedy Blvd","city":"Tampa","state":"FL","postal_code":"33609","latitude":27.9450329,"longitude":-82.4991813,"stars":4.5,"review_count":5,"is_open":1,"attributes":null,"categories":"Professional Services, General Litigation, Personal Injury Law, Lawyers, DUI Law, Legal Services, Divorce & Family Law, Web Design","hours":{"Monday":"0:0-0:0","Tuesday":"0:0-0:0","Wednesday":"0:0-0:0","Thursday":"0:0-0:0","Friday":"0:0-0:0","Saturday":"0:0-0:0","Sunday":"0:0-0:0"}}
{"business_id":"8zzOcodws_GwKokAWDD6Ew","name":"Ashley HomeStore","address":"24244 Us Hwy 19 N","city":"Clearwater","state":"FL","postal_code":"33763","latitude":27.9920454,"longitude":-82.7310905,"stars":2.0,"review_count":115,"is_open":1,"attributes":{"RestaurantsPriceRange2":"3","BusinessAcceptsCreditCards":"True","BusinessParking":"{'garage': False, 'street': False, 'validated': False, 'lot': True, 'valet': False}","BikeParking":"True"},"categories":"Home & Garden, Home Decor, Furniture Stores, Shopping, Mattresses","hours":{"Monday":"10:0-21:0","Tuesday":"10:0-21:0","Wednesday":"10:0-21:0","Thursday":"10:0-21:0","Friday":"10:0-21:0","Saturday":"10:0-21:0","Sunday":"11:0-19:0"}}
{"business_id":"CQEriE-BOvuiafpH1lOFKA","name":"The Animas Center","address":"5575 E River Rd, Ste 121","city":"Tucson","state":"AZ","postal_code":"85750","latitude":32.2750245,"longitude":-110.8741981,"stars":4.0,"review_count":10,"is_open":1,"attributes":{"BusinessAcceptsCreditCards":"True","GoodForKids":"True"},"categories":"Pilates, Active Life, Yoga, Dance Studios, Fitness & Instruction","hours":{"Monday":"7:30-19:0","Tuesday":"8:0-19:30","Wednesday":"6:30-19:0","Thursday":"8:30-19:30","Friday":"7:30-17:30","Saturday":"7:0-15:30","Sunday":"9:0-12:0"}}
{"business_id":"A0F-h3xJm_6gHDKcDQwSrQ","name":"Capogiro Gelato","address":"3925 Walnut St","city":"Philadelphia","state":"PA","postal_code":"19104","latitude":39.9541715545,"longitude":-75.2013800841,"stars":4.0,"review_count":252,"is_open":0,"attributes":{"BusinessParking":"{'garage': False, 'street': True, 'validated': False, 'lot': False, 'valet': False}","RestaurantsAttire":"'casual'","RestaurantsPriceRange2":"2","WiFi":"u'free'","OutdoorSeating":"True","BusinessAcceptsCreditCards":"True","BikeParking":"True","HasTV":"False","Alcohol":"'none'","Ambience":"{'touristy': False, 'hipster': True, 'romantic': False, 'divey': False, 'intimate': False, 'trendy': False, 'upscale': False, 'classy': False, 'casual': True}","RestaurantsReservations":"False","NoiseLevel":"'average'","RestaurantsDelivery":"False","HappyHour":"True","GoodForKids":"True","RestaurantsTakeOut":"True","RestaurantsGoodForGroups":"True","Caters":"False"},"categories":"Pizza, Restaurants, Gelato, Coffee & Tea, Ice Cream & Frozen Yogurt, Food","hours":{"Monday":"8:0-22:30","Tuesday":"8:0-22:30","Wednesday":"8:0-22:30","Thursday":"8:0-22:30","Friday":"8:0-0:0","Saturday":"8:0-0:0","Sunday":"8:0-22:30"}}
{"business_id":"TNUg27krgWLuF12ttBmBiQ","name":"Massage Envy - Bellevue","address":"8024 Highway 100, Ste 2B","city":"Bellevue","state":"TN","postal_code":"37221","latitude":36.047128,"longitude":-86.95194,"stars":3.5,"review_count":12,"is_open":1,"attributes":{"BusinessParking":"{'garage': False, 'street': False, 'validated': False, 'lot': True, 'valet': False}","BusinessAcceptsCreditCards":"True","BikeParking":"True","RestaurantsPriceRange2":"2","ByAppointmentOnly":"True"},"categories":"Health & Medical, Day Spas, Skin Care, Massage Therapy, Beauty & Spas, Massage","hours":{"Monday":"0:0-0:0","Tuesday":"8:0-22:0","Wednesday":"8:0-22:0","Thursday":"8:0-22:0","Friday":"8:0-22:0","Saturday":"8:0-22:0","Sunday":"10:0-20:0"}}
{"business_id":"IVcN2mtVN1Yw3ABRB2Cx0Q","name":"Big Dave's Towing & Roadside Service","address":"3355 E Michigan","city":"Tucson","state":"AZ","postal_code":"85714","latitude":32.170951,"longitude":-110.92098,"stars":2.5,"review_count":6,"is_open":1,"attributes":null,"categories":"Auto Repair, Automotive, Roadside Assistance, Towing","hours":{"Monday":"8:0-17:0","Tuesday":"8:0-17:0","Wednesday":"8:0-17:0","Thursday":"8:0-17:0","Friday":"8:0-17:0","Saturday":"8:0-17:0","Sunday":"8:0-17:0"}}
{"business_id":"NyV_2EGhs-YHYYVmZRYmOQ","name":"McDonald's","address":"400 West Ave","city":"Woodstown","state":"NJ","postal_code":"08098","latitude":39.6470143366,"longitude":-75.3344234117,"stars":1.5,"review_count":14,"is_open":1,"attributes":{"Alcohol":"u'none'","OutdoorSeating":"False","RestaurantsAttire":"u'casual'","BusinessAcceptsCreditCards":"True","RestaurantsPriceRange2":"1","GoodForKids":"True","BusinessParking":"{'garage': False, 'street': False, 'validated': False, 'lot': False, 'valet': False}","RestaurantsGoodForGroups":"False","GoodForMeal":"{'dessert': False, 'latenight': False, 'lunch': False, 'dinner': False, 'brunch': False, 'breakfast': False}","RestaurantsReservations":"False","Ambience":"{'touristy': False, 'hipster': False, 'romantic': False, 'divey': False, 'intimate': False, 'trendy': False, 'upscale': False, 'classy': False, 'casual': False}","RestaurantsTableService":"False","RestaurantsDelivery":"True","WheelchairAccessible":"True","RestaurantsTakeOut":"True","HasTV":"True","DriveThru":"True","WiFi":"u'free'"},"categories":"Coffee & Tea, Fast Food, Food, Burgers, Restaurants","hours":{"Monday":"0:0-0:0","Tuesday":"0:0-0:0","Wednesday":"0:0-0:0","Thursday":"0:0-0:0","Friday":"0:0-0:0","Saturday":"0:0-0:0","Sunday":"0:0-0:0"}}
{"business_id":"ruMlpNEfJ2BgNhHFIpl4Og","name":"BuBinga LIVE","address":"Eldorado Hotel Casino, 345 N Virginia St","city":"Reno","state":"NV","postal_code":"89501","latitude":39.529446,"longitude":-119.814496,"stars":3.5,"review_count":22,"is_open":0,"attributes":{"NoiseLevel":"u'very_loud'","BusinessAcceptsCreditCards":"True","BusinessParking":"{'garage': True, 'street': True, 'validated': False, 'lot': False, 'valet': True}","BikeParking":"True","OutdoorSeating":"False","Ambience":"{'romantic': False, 'intimate': False, 'touristy': False, 'hipster': False, 'divey': False, 'classy': False, 'trendy': True, 'upscale': False, 'casual': False}","Alcohol":"u'full_bar'","RestaurantsPriceRange2":"2","RestaurantsGoodForGroups":"True","HasTV":"True"},"categories":"Music Venues, Arts & Entertainment, Lounges, Bars, Dance Clubs, Nightlife","hours":null}
